{"version":"0.9.5","fields":["name","country","city","iata"],"ref":"iata","documentStore":{"docs":{"TXF":{"name":"9 de Maio - Teixeira de Freitas Airport","iata":"TXF","city":"Teixeira de Freitas","country":"Brazil","longitude":-39.668499,"latitude":-17.5245},"LCG":{"name":"A Coruña Airport","iata":"LCG","city":"La Coruna","country":"Spain","longitude":-8.37726,"latitude":43.302101},"AAH":{"name":"Aachen-Merzbrück Airport","iata":"AAH","city":"Aachen","country":"Germany","longitude":6.186389,"latitude":50.823055},"AAL":{"name":"Aalborg Airport","iata":"AAL","city":"Aalborg","country":"Denmark","longitude":9.849243,"latitude":57.092759},"AAR":{"name":"Aarhus Airport","iata":"AAR","city":"Aarhus","country":"Denmark","longitude":10.619,"latitude":56.299999},"JEG":{"name":"Aasiaat Airport","iata":"JEG","city":"Aasiaat","country":"Greenland","longitude":-52.784698,"latitude":68.721802},"DIR":{"name":"Aba Tenna Dejazmach Yilma International Airport","iata":"DIR","city":"Dire Dawa","country":"Ethiopia","longitude":41.854198,"latitude":9.6247},"WKR":{"name":"Abaco I Walker C Airport","iata":"WKR","city":"Walker's Cay","country":"Bahamas","longitude":-78.399696,"latitude":27.266701},"ABD":{"name":"Abadan Airport","iata":"ABD","city":"Abadan","country":"Iran","longitude":48.228298,"latitude":30.371099},"ABF":{"name":"Abaiang Airport","iata":"ABF","city":"Abaiang Atoll","country":"Kiribati","longitude":173.041,"latitude":1.79861},"ABA":{"name":"Abakan Airport","iata":"ABA","city":"Abakan","country":"Russia","longitude":91.385002,"latitude":53.740002},"XAB":{"name":"Abbeville","iata":"XAB","city":"Abbeville","country":"France","longitude":1.831891,"latitude":50.143501},"YXX":{"name":"Abbotsford Airport","iata":"YXX","city":"Abbotsford","country":"Canada","longitude":-122.361,"latitude":49.025299},"MLG":{"name":"Abdul Rachman Saleh Airport","iata":"MLG","city":"Malang","country":"Indonesia","longitude":112.714996,"latitude":-7.92656},"AEH":{"name":"Abeche Airport","iata":"AEH","city":"Abeche","country":"Chad","longitude":20.844299,"latitude":13.847},"ZNZ":{"name":"Abeid Amani Karume International Airport","iata":"ZNZ","city":"Zanzibar","country":"Tanzania","longitude":39.224899,"latitude":-6.22202},"SNU":{"name":"Abel Santamaria Airport","iata":"SNU","city":"Santa Clara","country":"Cuba","longitude":-79.943604,"latitude":22.492201},"AEA":{"name":"Abemama Atoll Airport","iata":"AEA","city":"Abemama","country":"Kiribati","longitude":173.828995,"latitude":0.490833},"ABZ":{"name":"Aberdeen Dyce Airport","iata":"ABZ","city":"Aberdeen","country":"United Kingdom","longitude":-2.19778,"latitude":57.2019},"ABR":{"name":"Aberdeen Regional Airport","iata":"ABR","city":"Aberdeen","country":"United States","longitude":-98.421799,"latitude":45.4491},"AHB":{"name":"Abha Regional Airport","iata":"AHB","city":"Abha","country":"Saudi Arabia","longitude":42.656601,"latitude":18.2404},"ABI":{"name":"Abilene Regional Airport","iata":"ABI","city":"Abilene","country":"United States","longitude":-99.6819,"latitude":32.411301},"CJS":{"name":"Abraham González International Airport","iata":"CJS","city":"Ciudad Juarez","country":"Mexico","longitude":-106.429001,"latitude":31.636101},"SPI":{"name":"Abraham Lincoln Capital Airport","iata":"SPI","city":"Springfield","country":"United States","longitude":-89.677902,"latitude":39.844101},"AUH":{"name":"Abu Dhabi International Airport","iata":"AUH","city":"Abu Dhabi","country":"United Arab Emirates","longitude":54.6511,"latitude":24.433001},"AEU":{"name":"Abu Musa Island Airport","iata":"AEU","city":"Abumusa I.","country":"Iran","longitude":55.033001,"latitude":25.8757},"ABS":{"name":"Abu Simbel Airport","iata":"ABS","city":"Abu Simbel","country":"Egypt","longitude":31.6117,"latitude":22.375999},"ARA":{"name":"Acadiana Regional Airport","iata":"ARA","city":"Louisiana","country":"United States","longitude":-91.883904,"latitude":30.0378},"ACS":{"name":"Achinsk Airport","iata":"ACS","city":"Achinsk","country":"Russia","longitude":90.570801,"latitude":56.268299},"SRG":{"name":"Achmad Yani Airport","iata":"SRG","city":"Semarang","country":"Indonesia","longitude":110.375,"latitude":-6.97273},"ADT":{"name":"Ada Regional Airport","iata":"ADT","city":"Ada","country":"United States","longitude":-96.671303,"latitude":34.804298},"ADK":{"name":"Adak Airport","iata":"ADK","city":"Adak Island","country":"United States","longitude":-176.645996,"latitude":51.877998},"AIP":{"name":"Adampur Airport","iata":"AIP","city":"Adampur","country":"India","longitude":75.758797,"latitude":31.4338},"ADA":{"name":"Adana Airport","iata":"ADA","city":"Adana","country":"Turkey","longitude":35.280399,"latitude":36.982201},"ADD":{"name":"Addis Ababa Bole International Airport","iata":"ADD","city":"Addis Ababa","country":"Ethiopia","longitude":38.799301,"latitude":8.97789},"ADS":{"name":"Addison Airport","iata":"ADS","city":"Addison","country":"United States","longitude":-96.836403,"latitude":32.968601},"ADL":{"name":"Adelaide International Airport","iata":"ADL","city":"Adelaide","country":"Australia","longitude":138.531006,"latitude":-34.945},"MGQ":{"name":"Aden Adde International Airport","iata":"MGQ","city":"Mogadishu","country":"Somalia","longitude":45.304699,"latitude":2.01444},"ADE":{"name":"Aden International Airport","iata":"ADE","city":"Aden","country":"Yemen","longitude":45.028801,"latitude":12.8295},"SOC":{"name":"Adi Sumarmo Wiryokusumo Airport","iata":"SOC","city":"Solo City","country":"Indonesia","longitude":110.757004,"latitude":-7.51609},"JOG":{"name":"Adi Sutjipto International Airport","iata":"JOG","city":"Yogyakarta","country":"Indonesia","longitude":110.431999,"latitude":-7.78818},"SLK":{"name":"Adirondack Regional Airport","iata":"SLK","city":"Saranac Lake","country":"United States","longitude":-74.2062,"latitude":44.3853},"ADB":{"name":"Adnan Menderes International Airport","iata":"ADB","city":"Izmir","country":"Turkey","longitude":27.157,"latitude":38.2924},"MAD":{"name":"Adolfo Suárez Madrid–Barajas Airport","iata":"MAD","city":"Madrid","country":"Spain","longitude":-3.56264,"latitude":40.471926},"SMT":{"name":"Adolino Bedin Regional Airport","iata":"SMT","city":"Sorriso","country":"Brazil","longitude":-55.672341,"latitude":-12.479177},"ADF":{"name":"Adıyaman Airport","iata":"ADF","city":"Adiyaman","country":"Turkey","longitude":38.468899,"latitude":37.7314},"AEG":{"name":"Aek Godang Airport","iata":"AEG","city":"Padang Sidempuan","country":"Indonesia","longitude":99.430496,"latitude":1.4001},"QNV":{"name":"Aeroclube Airport","iata":"QNV","city":"Nova Iguacu","country":"Brazil","longitude":-43.4603,"latitude":-22.7453},"VSE":{"name":"Aerodromo Goncalves Lobato (Viseu Airport)","iata":"VSE","city":"Viseu","country":"Portugal","longitude":-7.88899,"latitude":40.725498},"CBL":{"name":"Aeropuerto \"General Tomas de Heres\". Ciudad Bolivar","iata":"CBL","city":"Ciudad Bolivar","country":"Venezuela","longitude":-63.536957,"latitude":8.122161},"TTQ":{"name":"Aerotortuguero Airport","iata":"TTQ","city":"Roxana","country":"Costa Rica","longitude":-83.6095,"latitude":10.42},"CWB":{"name":"Afonso Pena Airport","iata":"CWB","city":"Curitiba","country":"Brazil","longitude":-49.1758,"latitude":-25.5285},"AFT":{"name":"Afutara Aerodrome","iata":"AFT","city":"Afutara","country":"Solomon Islands","longitude":160.948611,"latitude":-9.191389},"AFY":{"name":"Afyon Airport","iata":"AFY","city":"Afyon","country":"Turkey","longitude":30.601101,"latitude":38.726398},"IXA":{"name":"Agartala Airport","iata":"IXA","city":"Agartala","country":"India","longitude":91.240402,"latitude":23.886999},"AGX":{"name":"Agatti Airport","iata":"AGX","city":"Agatti Island","country":"India","longitude":72.176003,"latitude":10.8237},"AGF":{"name":"Agen-La Garenne Airport","iata":"AGF","city":"Agen","country":"France","longitude":0.590556,"latitude":44.174702},"AGZ":{"name":"Aggeneys Airport","iata":"AGZ","city":"Aggeneys","country":"South Africa","longitude":18.8139,"latitude":-29.281799},"AKW":{"name":"Aghajari Airport","iata":"AKW","city":"Aghajari","country":"Iran","longitude":49.6772,"latitude":30.7444},"AGR":{"name":"Agra Airport","iata":"AGR","city":"Agra","country":"India","longitude":77.960899,"latitude":27.1558},"AGQ":{"name":"Agrinion Air Base","iata":"AGQ","city":"Agrinion","country":"Greece","longitude":21.3512,"latitude":38.602001},"OCV":{"name":"Aguas Claras Airport","iata":"OCV","city":"Ocana","country":"Colombia","longitude":-73.3583,"latitude":8.31506},"TMR":{"name":"Aguenar – Hadj Bey Akhamok Airport","iata":"TMR","city":"Tamanrasset","country":"Algeria","longitude":5.45108,"latitude":22.811501},"AGJ":{"name":"Aguni Airport","iata":"AGJ","city":"Aguni","country":"Japan","longitude":127.240997,"latitude":26.592501},"AHE":{"name":"Ahe Airport","iata":"AHE","city":"Ahe","country":"French Polynesia","longitude":-146.257004,"latitude":-14.4281},"XIJ":{"name":"Ahmed Al Jaber Air Base","iata":"XIJ","city":"Ahmed Al Jaber AB","country":"Kuwait","longitude":47.791901,"latitude":28.934799},"AHS":{"name":"Ahuas Airport","iata":"AHS","city":"Ahuas","country":"Honduras","longitude":-84.352203,"latitude":15.4722},"AWZ":{"name":"Ahwaz Airport","iata":"AWZ","city":"Ahwaz","country":"Iran","longitude":48.762001,"latitude":31.3374},"AIK":{"name":"Aiken Regional Airport","iata":"AIK","city":"Aiken","country":"United States","longitude":-81.684998,"latitude":33.649399},"QSF":{"name":"Ain Arnat Airport","iata":"QSF","city":"Setif","country":"Algeria","longitude":5.32449,"latitude":36.178101},"OGX":{"name":"Ain el Beida Airport","iata":"OGX","city":"Ouargla","country":"Algeria","longitude":5.41278,"latitude":31.9172},"AEO":{"name":"Aioun el Atrouss Airport","iata":"AEO","city":"Aioun El Atrouss","country":"Mauritania","longitude":-9.63788,"latitude":16.7113},"AIT":{"name":"Aitutaki Airport","iata":"AIT","city":"Aitutaki","country":"Cook Islands","longitude":-159.764008,"latitude":-18.8309},"AJA":{"name":"Ajaccio-Napoléon Bonaparte Airport","iata":"AJA","city":"Ajaccio","country":"France","longitude":8.80292,"latitude":41.923599},"ENU":{"name":"Akanu Ibiam International Airport","iata":"ENU","city":"Enugu","country":"Nigeria","longitude":7.56196,"latitude":6.47427},"AKK":{"name":"Akhiok Airport","iata":"AKK","city":"Akhiok","country":"United States","longitude":-154.182999,"latitude":56.938702},"AKI":{"name":"Akiak Airport","iata":"AKI","city":"Akiak","country":"United States","longitude":-161.231003,"latitude":60.902901},"AXT":{"name":"Akita Airport","iata":"AXT","city":"Akita","country":"Japan","longitude":140.218994,"latitude":39.615601},"LAK":{"name":"Aklavik/Freddie Carmichael Airport","iata":"LAK","city":"Aklavik","country":"Canada","longitude":-135.00599,"latitude":68.223297},"AKD":{"name":"Akola Airport","iata":"AKD","city":"Akola","country":"India","longitude":77.058601,"latitude":20.698999},"CAK":{"name":"Akron Canton Regional Airport","iata":"CAK","city":"Akron","country":"United States","longitude":-81.4422,"latitude":40.9161},"AKC":{"name":"Akron Fulton International Airport","iata":"AKC","city":"Akron","country":"United States","longitude":-81.466904,"latitude":41.037498},"AKU":{"name":"Aksu Airport","iata":"AKU","city":"Aksu","country":"China","longitude":80.291702,"latitude":41.262501},"SCO":{"name":"Aktau Airport","iata":"SCO","city":"Aktau","country":"Kazakhstan","longitude":51.091999,"latitude":43.8601},"PVK":{"name":"Aktion National Airport","iata":"PVK","city":"Preveza","country":"Greece","longitude":20.765301,"latitude":38.925499},"AKX":{"name":"Aktobe Airport","iata":"AKX","city":"Aktyubinsk","country":"Kazakhstan","longitude":57.206699,"latitude":50.2458},"AKV":{"name":"Akulivik Airport","iata":"AKV","city":"Akulivik","country":"Canada","longitude":-78.148598,"latitude":60.8186},"AKR":{"name":"Akure Airport","iata":"AKR","city":"Akure","country":"Nigeria","longitude":5.30101,"latitude":7.24674},"AEY":{"name":"Akureyri Airport","iata":"AEY","city":"Akureyri","country":"Iceland","longitude":-18.072701,"latitude":65.660004},"KQA":{"name":"Akutan Seaplane Base","iata":"KQA","city":"Akutan","country":"United States","longitude":-165.778896,"latitude":54.13377},"QUO":{"name":"Akwa Ibom International Airport","iata":"QUO","city":"Uyo","country":"Nigeria","longitude":8.093,"latitude":4.8725},"HOF":{"name":"Al Ahsa Airport","iata":"HOF","city":"Al-ahsa","country":"Saudi Arabia","longitude":49.485199,"latitude":25.285299},"AAN":{"name":"Al Ain International Airport","iata":"AAN","city":"Al Ain","country":"United Arab Emirates","longitude":55.6092,"latitude":24.2617},"IQA":{"name":"Al Asad Air Base","iata":"IQA","city":"Al Asad","country":"Iraq","longitude":42.4412,"latitude":33.785599},"ABT":{"name":"Al Baha Airport","iata":"ABT","city":"El-baha","country":"Saudi Arabia","longitude":41.6343,"latitude":20.296101},"DHF":{"name":"Al Dhafra Air Base","iata":"DHF","city":"Abu Dhabi","country":"United Arab Emirates","longitude":54.547699,"latitude":24.248199},"AAY":{"name":"Al Ghaidah International Airport","iata":"AAY","city":"Al Ghaidah Intl","country":"Yemen","longitude":52.174999,"latitude":16.1917},"DWC":{"name":"Al Maktoum International Airport","iata":"DWC","city":"Dubai","country":"United Arab Emirates","longitude":55.161389,"latitude":24.896356},"AGA":{"name":"Al Massira Airport","iata":"AGA","city":"Agadir","country":"Morocco","longitude":-9.41307,"latitude":30.325001},"NHD":{"name":"Al Minhad Air Base","iata":"NHD","city":"Minhad AB","country":"United Arab Emirates","longitude":55.366199,"latitude":25.0268},"NJF":{"name":"Al Najaf International Airport","iata":"NJF","city":"Najaf","country":"Iraq","longitude":44.404317,"latitude":31.989853},"AQI":{"name":"Al Qaisumah/Hafr Al Batin Airport","iata":"AQI","city":"Hafr Al-batin","country":"Saudi Arabia","longitude":46.125099,"latitude":28.335199},"TQD":{"name":"Al Taqaddum Air Base","iata":"TQD","city":"Al Taqaddum","country":"Iraq","longitude":43.597099,"latitude":33.3381},"XJD":{"name":"Al Udeid Air Base","iata":"XJD","city":"Doha","country":"Qatar","longitude":51.314999,"latitude":25.1173},"EJH":{"name":"Al Wajh Domestic Airport","iata":"EJH","city":"Wejh","country":"Saudi Arabia","longitude":36.476398,"latitude":26.198601},"AJF":{"name":"Al-Jawf Domestic Airport","iata":"AJF","city":"Al-Jawf","country":"Saudi Arabia","longitude":40.099998,"latitude":29.785101},"AUK":{"name":"Alakanuk Airport","iata":"AUK","city":"Alakanuk","country":"United States","longitude":-164.659927,"latitude":62.680042},"LHE":{"name":"Alama Iqbal International Airport","iata":"LHE","city":"Lahore","country":"Pakistan","longitude":74.403603,"latitude":31.521601},"NGZ":{"name":"Alameda Naval Air Station","iata":"NGZ","city":"Alameda","country":"United States","longitude":-122.32,"latitude":37.788898},"ALM":{"name":"Alamogordo White Sands Regional Airport","iata":"ALM","city":"Alamogordo","country":"United States","longitude":-105.990997,"latitude":32.839901},"BPL":{"name":"Alashankou Bole (Bortala) airport","iata":"BPL","city":"Bole","country":"China","longitude":82.3,"latitude":44.895},"ABC":{"name":"Albacete-Los Llanos Airport","iata":"ABC","city":"Albacete","country":"Spain","longitude":-1.86352,"latitude":38.948502},"ALH":{"name":"Albany Airport","iata":"ALH","city":"Albany","country":"Australia","longitude":117.808998,"latitude":-34.943298},"ALB":{"name":"Albany International Airport","iata":"ALB","city":"Albany","country":"United States","longitude":-73.801697,"latitude":42.748299},"OAJ":{"name":"Albert J Ellis Airport","iata":"OAJ","city":"Jacksonville NC","country":"United States","longitude":-77.612099,"latitude":34.829201},"SPG":{"name":"Albert Whitted Airport","iata":"SPG","city":"St. Petersburg","country":"United States","longitude":-82.626999,"latitude":27.7651},"BYF":{"name":"Albert-Bray Airport","iata":"BYF","city":"Albert","country":"France","longitude":2.69766,"latitude":49.9715},"MCP":{"name":"Alberto Alcolumbre Airport","iata":"MCP","city":"Macapa","country":"Brazil","longitude":-51.072201,"latitude":0.050664},"MRD":{"name":"Alberto Carnevalli Airport","iata":"MRD","city":"Merida","country":"Venezuela","longitude":-71.161041,"latitude":8.582078},"TND":{"name":"Alberto Delgado Airport","iata":"TND","city":"Trinidad","country":"Cuba","longitude":-79.9972,"latitude":21.7883},"LBI":{"name":"Albi-Le Séquestre Airport","iata":"LBI","city":"Albi","country":"France","longitude":2.11306,"latitude":43.913898},"ABN":{"name":"Albina Airport","iata":"ABN","city":"Albina","country":"Suriname","longitude":-54.050098,"latitude":5.51272},"ABQ":{"name":"Albuquerque International Sunport","iata":"ABQ","city":"Albuquerque","country":"United States","longitude":-106.609001,"latitude":35.040199},"ABX":{"name":"Albury Airport","iata":"ABX","city":"Albury","country":"Australia","longitude":146.957993,"latitude":-36.067799},"ACD":{"name":"Alcides Fernández Airport","iata":"ACD","city":"Acandi","country":"Colombia","longitude":-77.3,"latitude":8.51667},"ADH":{"name":"Aldan Airport","iata":"ADH","city":"Aldan","country":"Russia","longitude":125.408997,"latitude":58.602798},"ACI":{"name":"Alderney Airport","iata":"ACI","city":"Alderney","country":"Guernsey","longitude":-2.21472,"latitude":49.706104},"CUZ":{"name":"Alejandro Velasco Astete International Airport","iata":"CUZ","city":"Cuzco","country":"Peru","longitude":-71.938797,"latitude":-13.5357},"WKK":{"name":"Aleknagik / New Airport","iata":"WKK","city":"Aleknagik","country":"United States","longitude":-158.617996,"latitude":59.2826},"ALP":{"name":"Aleppo International Airport","iata":"ALP","city":"Aleppo","country":"Syria","longitude":37.2244,"latitude":36.180698},"YLT":{"name":"Alert Airport","iata":"YLT","city":"Alert","country":"Canada","longitude":-62.280602,"latitude":82.517799},"YAL":{"name":"Alert Bay Airport","iata":"YAL","city":"Alert Bay","country":"Canada","longitude":-126.916,"latitude":50.582199},"AES":{"name":"Ålesund Airport","iata":"AES","city":"Alesund","country":"Norway","longitude":6.1197,"latitude":62.5625},"ALJ":{"name":"Alexander Bay Airport","iata":"ALJ","city":"Alexander Bay","country":"South Africa","longitude":16.5333,"latitude":-28.575001},"ISW":{"name":"Alexander Field South Wood County Airport","iata":"ISW","city":"Wisconsin Rapids","country":"United States","longitude":-89.838997,"latitude":44.360298},"KVA":{"name":"Alexander the Great International Airport","iata":"KVA","city":"Kavala","country":"Greece","longitude":24.6192,"latitude":40.9133},"ALR":{"name":"Alexandra Airport","iata":"ALR","city":"Alexandra","country":"New Zealand","longitude":169.373001,"latitude":-45.2117},"AEX":{"name":"Alexandria International Airport","iata":"AEX","city":"Alexandria","country":"United States","longitude":-92.549797,"latitude":31.3274},"AOP":{"name":"Alferez FAP Alfredo Vladimir Sara Bauer Airport","iata":"AOP","city":"Andoas","country":"Peru","longitude":-76.466599,"latitude":-2.79613},"HUU":{"name":"Alferez Fap David Figueroa Fernandini Airport","iata":"HUU","city":"Huánuco","country":"Peru","longitude":-76.204803,"latitude":-9.87881},"CLO":{"name":"Alfonso Bonilla Aragon International Airport","iata":"CLO","city":"Cali","country":"Colombia","longitude":-76.3816,"latitude":3.54322},"VUP":{"name":"Alfonso López Pumarejo Airport","iata":"VUP","city":"Valledupar","country":"Colombia","longitude":-73.2495,"latitude":10.435},"LET":{"name":"Alfredo Vásquez Cobo International Airport","iata":"LET","city":"Leticia","country":"Colombia","longitude":-69.9432,"latitude":-4.19355},"AEI":{"name":"Algeciras Heliport","iata":"AEI","city":"Algeciras","country":"Spain","longitude":-5.441118,"latitude":36.12888},"AHO":{"name":"Alghero-Fertilia Airport","iata":"AHO","city":"Alghero","country":"Italy","longitude":8.29077,"latitude":40.632099},"ALC":{"name":"Alicante International Airport","iata":"ALC","city":"Alicante","country":"Spain","longitude":-0.558156,"latitude":38.2822},"ALI":{"name":"Alice International Airport","iata":"ALI","city":"Alice","country":"United States","longitude":-98.026901,"latitude":27.7409},"ASP":{"name":"Alice Springs Airport","iata":"ASP","city":"Alice Springs","country":"Australia","longitude":133.901993,"latitude":-23.8067},"AAV":{"name":"Allah Valley Airport","iata":"AAV","city":"Surallah","country":"Philippines","longitude":124.750999,"latitude":6.36682},"IXD":{"name":"Allahabad Airport","iata":"IXD","city":"Allahabad","country":"India","longitude":81.733902,"latitude":25.4401},"AET":{"name":"Allakaket Airport","iata":"AET","city":"Allakaket","country":"United States","longitude":-152.621994,"latitude":66.551804},"ADY":{"name":"Alldays Airport","iata":"ADY","city":"Alldays","country":"South Africa","longitude":29.0555,"latitude":-22.679001},"AGC":{"name":"Allegheny County Airport","iata":"AGC","city":"Pittsburgh","country":"United States","longitude":-79.930199,"latitude":40.354401},"BIG":{"name":"Allen Army Airfield","iata":"BIG","city":"Delta Junction","country":"United States","longitude":-145.722,"latitude":63.994499},"AIA":{"name":"Alliance Municipal Airport","iata":"AIA","city":"Alliance","country":"United States","longitude":-102.804001,"latitude":42.0532},"LLU":{"name":"Alluitsup Paa Heliport","iata":"LLU","city":"Alluitsup Paa","country":"Greenland","longitude":-45.56917,"latitude":60.46445},"YTF":{"name":"Alma Airport","iata":"YTF","city":"Alma","country":"Canada","longitude":-71.641899,"latitude":48.5089},"ALA":{"name":"Almaty Airport","iata":"ALA","city":"Alma-ata","country":"Kazakhstan","longitude":77.040497,"latitude":43.3521},"LEI":{"name":"Almería International Airport","iata":"LEI","city":"Almeria","country":"Spain","longitude":-2.3701,"latitude":36.843899},"REL":{"name":"Almirante Marco Andres Zar Airport","iata":"REL","city":"Trelew","country":"Argentina","longitude":-65.2703,"latitude":-43.2105},"RCH":{"name":"Almirante Padilla Airport","iata":"RCH","city":"Rio Hacha","country":"Colombia","longitude":-72.926,"latitude":11.5262},"IXV":{"name":"Along Airport","iata":"IXV","city":"Along","country":"India","longitude":94.802002,"latitude":28.175301},"CTD":{"name":"Alonso Valderrama Airport","iata":"CTD","city":"Chitré","country":"Panama","longitude":-80.409698,"latitude":7.98784},"APN":{"name":"Alpena County Regional Airport","iata":"APN","city":"Alpena","country":"United States","longitude":-83.560303,"latitude":45.078098},"ABH":{"name":"Alpha Airport","iata":"ABH","city":"Alpha","country":"Australia","longitude":146.584,"latitude":-23.646099},"ALE":{"name":"Alpine Casparis Municipal Airport","iata":"ALE","city":"Alpine","country":"United States","longitude":-103.683998,"latitude":30.384199},"ALF":{"name":"Alta Airport","iata":"ALF","city":"Alta","country":"Norway","longitude":23.3717,"latitude":69.976097},"LTI":{"name":"Altai Airport","iata":"LTI","city":"Altai","country":"Mongolia","longitude":96.2211,"latitude":46.3764},"ATM":{"name":"Altamira Airport","iata":"ATM","city":"Altamira","country":"Brazil","longitude":-52.254002,"latitude":-3.25391},"AAT":{"name":"Altay Air Base","iata":"AAT","city":"Altay","country":"China","longitude":88.085808,"latitude":47.749886},"AOC":{"name":"Altenburg-Nobitz Airport","iata":"AOC","city":"Altenburg","country":"Germany","longitude":12.506389,"latitude":50.981945},"AOO":{"name":"Altoona Blair County Airport","iata":"AOO","city":"Altoona","country":"United States","longitude":-78.32,"latitude":40.296398},"LTS":{"name":"Altus Air Force Base","iata":"LTS","city":"Altus","country":"United States","longitude":-99.266701,"latitude":34.667099},"ALU":{"name":"Alula Airport","iata":"ALU","city":"Alula","country":"Somalia","longitude":50.748,"latitude":11.9582},"AVR":{"name":"Alverca Air Base","iata":"AVR","city":"Alverca","country":"Portugal","longitude":-9.0301,"latitude":38.883301},"AXF":{"name":"Alxa Left Banner Bayanhot Airport","iata":"AXF","city":"Alxa Left Banner","country":"China","longitude":105.58858,"latitude":38.74831},"RHT":{"name":"Alxa Right Banner Badanjilin Airport","iata":"RHT","city":"Alxa Right Banner","country":"China","longitude":101.546,"latitude":39.225},"ZIS":{"name":"Alzintan Airport","iata":"ZIS","city":"Zintan","country":"Libya","longitude":12.25006,"latitude":31.774878},"AMC":{"name":"Am Timan Airport","iata":"AMC","city":"Am Timan","country":"Chad","longitude":20.274,"latitude":11.034},"TPQ":{"name":"Amado Nervo National Airport","iata":"TPQ","city":"Tepic","country":"Mexico","longitude":-104.843002,"latitude":21.4195},"AXJ":{"name":"Amakusa Airport","iata":"AXJ","city":"Amakusa","country":"Japan","longitude":130.158997,"latitude":32.482498},"ASJ":{"name":"Amami Airport","iata":"ASJ","city":"Amami","country":"Japan","longitude":129.712997,"latitude":28.430599},"CPQ":{"name":"Amarais Airport","iata":"CPQ","city":"Campinas","country":"Brazil","longitude":-47.1082,"latitude":-22.8592},"MZH":{"name":"Amasya Merzifon Airport","iata":"MZH","city":"Merzifon","country":"Turkey","longitude":35.521999,"latitude":40.829399},"AMT":{"name":"Amata Airport","iata":"AMT","city":"Amata","country":"Australia","longitude":131.207001,"latitude":-26.108299},"WAI":{"name":"Ambalabe Airport","iata":"WAI","city":"Antsohihy","country":"Madagascar","longitude":47.9939,"latitude":-14.8988},"WAM":{"name":"Ambatondrazaka Airport","iata":"WAM","city":"Ambatondrazaka","country":"Madagascar","longitude":48.442583,"latitude":-17.795378},"AMB":{"name":"Ambilobe Airport","iata":"AMB","city":"Ambilobe","country":"Madagascar","longitude":48.987999,"latitude":-13.1884},"ABL":{"name":"Ambler Airport","iata":"ABL","city":"Ambler","country":"United States","longitude":-157.856989,"latitude":67.1063},"MJN":{"name":"Amborovy Airport","iata":"MJN","city":"Mahajanga","country":"Madagascar","longitude":46.351233,"latitude":-15.666842},"ASV":{"name":"Amboseli Airport","iata":"ASV","city":"Amboseli National Park","country":"Kenya","longitude":37.253101,"latitude":-2.64505},"AMV":{"name":"Amderma Airport","iata":"AMV","city":"Amderma","country":"Russia","longitude":61.5564,"latitude":69.763298},"SID":{"name":"Amílcar Cabral International Airport","iata":"SID","city":"Amilcar Cabral","country":"Cape Verde","longitude":-22.9494,"latitude":16.7414},"ADJ":{"name":"Amman-Marka International Airport","iata":"ADJ","city":"Amman","country":"Jordan","longitude":35.9916,"latitude":31.9727},"YEY":{"name":"Amos/Magny Airport","iata":"YEY","city":"Amos","country":"Canada","longitude":-78.249702,"latitude":48.563903},"IVA":{"name":"Ampampamena Airport","iata":"IVA","city":"Ampampamena","country":"Madagascar","longitude":48.632702,"latitude":-13.484816},"ADP":{"name":"Ampara Airport","iata":"ADP","city":"Galoya","country":"Sri Lanka","longitude":81.62594,"latitude":7.33776},"AMS":{"name":"Amsterdam Airport Schiphol","iata":"AMS","city":"Amsterdam","country":"Netherlands","longitude":4.76389,"latitude":52.308601},"AAA":{"name":"Anaa Airport","iata":"AAA","city":"Anaa","country":"French Polynesia","longitude":-145.509995,"latitude":-17.3526},"AAO":{"name":"Anaco Airport","iata":"AAO","city":"Anaco","country":"Venezuela","longitude":-64.470726,"latitude":9.430225},"AOE":{"name":"Anadolu Airport","iata":"AOE","city":"Eskissehir","country":"Turkey","longitude":30.5194,"latitude":39.809898},"YAA":{"name":"Anahim Lake Airport","iata":"YAA","city":"Anahim Lake","country":"Canada","longitude":-125.303001,"latitude":52.452499},"AKP":{"name":"Anaktuvuk Pass Airport","iata":"AKP","city":"Anaktuvuk Pass","country":"United States","longitude":-151.742996,"latitude":68.133598},"HVA":{"name":"Analalava Airport","iata":"HVA","city":"Analalava","country":"Madagascar","longitude":47.763802,"latitude":-14.6297},"AAQ":{"name":"Anapa Vityazevo Airport","iata":"AAQ","city":"Anapa","country":"Russia","longitude":37.347301,"latitude":45.002102},"AOI":{"name":"Ancona Falconara Airport","iata":"AOI","city":"Ancona","country":"Italy","longitude":13.3623,"latitude":43.616299},"ANS":{"name":"Andahuaylas Airport","iata":"ANS","city":"Andahuaylas","country":"Peru","longitude":-73.350403,"latitude":-13.7064},"ZWA":{"name":"Andapa Airport","iata":"ZWA","city":"Andapa","country":"Madagascar","longitude":49.620602,"latitude":-14.6517},"UAM":{"name":"Andersen Air Force Base","iata":"UAM","city":"Andersen","country":"Guam","longitude":144.929998,"latitude":13.584},"AID":{"name":"Anderson Municipal Darlington Field","iata":"AID","city":"ANDERSON","country":"United States","longitude":-85.612999,"latitude":40.108601},"AND":{"name":"Anderson Regional Airport","iata":"AND","city":"Andersen","country":"United States","longitude":-82.709396,"latitude":34.494598},"MXB":{"name":"Andi Jemma Airport","iata":"MXB","city":"Masamba","country":"Indonesia","longitude":120.323997,"latitude":-2.55803},"AZN":{"name":"Andizhan Airport","iata":"AZN","city":"Andizhan","country":"Uzbekistan","longitude":72.293999,"latitude":40.727699},"ANX":{"name":"Andøya Airport","iata":"ANX","city":"Andoya","country":"Norway","longitude":16.144199,"latitude":69.292503},"AAP":{"name":"Andrau Airpark","iata":"AAP","city":"Houston","country":"United States","longitude":-95.588303,"latitude":29.7225},"PYR":{"name":"Andravida Air Base","iata":"PYR","city":"Andravida","country":"Greece","longitude":21.292601,"latitude":37.9207},"ICC":{"name":"Andrés Miguel Salazar Marcano Airport","iata":"ICC","city":"Isla De Coche","country":"Venezuela","longitude":-63.98159,"latitude":10.794432},"ANF":{"name":"Andrés Sabella Gálvez International Airport","iata":"ANF","city":"Antofagasta","country":"Chile","longitude":-70.445099,"latitude":-23.444501},"ASD":{"name":"Andros Town Airport","iata":"ASD","city":"Andros Town","country":"Bahamas","longitude":-77.795601,"latitude":24.697901},"AUY":{"name":"Aneityum Airport","iata":"AUY","city":"Anelghowhat","country":"Vanuatu","longitude":169.770996,"latitude":-20.249201},"OUD":{"name":"Angads Airport","iata":"OUD","city":"Oujda","country":"Morocco","longitude":-1.92399,"latitude":34.787201},"TGZ":{"name":"Angel Albino Corzo International Airport","iata":"TGZ","city":"Tuxtla Gutierrez","country":"Mexico","longitude":-93.022499,"latitude":16.563601},"AGH":{"name":"Ängelholm-Helsingborg Airport","iata":"AGH","city":"Ängelholm","country":"Sweden","longitude":12.8471,"latitude":56.296101},"LFK":{"name":"Angelina County Airport","iata":"LFK","city":"Lufkin","country":"United States","longitude":-94.75,"latitude":31.233999},"ANE":{"name":"Angers-Loire Airport","iata":"ANE","city":"Angers/Marcé","country":"France","longitude":-0.312222,"latitude":47.560299},"VLY":{"name":"Anglesey Airport","iata":"VLY","city":"Angelsey","country":"United Kingdom","longitude":-4.53534,"latitude":53.2481},"AGN":{"name":"Angoon Seaplane Base","iata":"AGN","city":"Angoon","country":"United States","longitude":-134.585007,"latitude":57.503601},"ANG":{"name":"Angoulême-Brie-Champniers Airport","iata":"ANG","city":"Angouleme","country":"France","longitude":0.221456,"latitude":45.729198},"ANI":{"name":"Aniak Airport","iata":"ANI","city":"Aniak","country":"United States","longitude":-159.542999,"latitude":61.5816},"AWD":{"name":"Aniwa Airport","iata":"AWD","city":"Aniwa","country":"Vanuatu","longitude":169.6009,"latitude":-19.2346},"AKA":{"name":"Ankang Wulipu Airport","iata":"AKA","city":"Ankang","country":"China","longitude":108.931,"latitude":32.708099},"JVA":{"name":"Ankavandra Airport","iata":"JVA","city":"Ankavandra","country":"Madagascar","longitude":45.273467,"latitude":-18.80501},"VBA":{"name":"Ann Airport","iata":"VBA","city":"Ann","country":"Burma","longitude":94.0261,"latitude":19.769199},"ARB":{"name":"Ann Arbor Municipal Airport","iata":"ARB","city":"Ann Arbor","country":"United States","longitude":-83.745598,"latitude":42.223},"NAI":{"name":"Annai Airport","iata":"NAI","city":"Annai","country":"Guyana","longitude":-59.124199,"latitude":3.95944},"NCY":{"name":"Annecy-Haute-Savoie-Mont Blanc Airport","iata":"NCY","city":"Annecy","country":"France","longitude":6.106389,"latitude":45.930833},"QNJ":{"name":"Annemasse Airport","iata":"QNJ","city":"Annemasse","country":"France","longitude":6.26839,"latitude":46.192001},"ANN":{"name":"Annette Island Airport","iata":"ANN","city":"Annette Island","country":"United States","longitude":-131.572006,"latitude":55.0424},"ANB":{"name":"Anniston Regional Airport","iata":"ANB","city":"Anniston","country":"United States","longitude":-85.8581,"latitude":33.5882},"NBN":{"name":"Annobón Airport","iata":"NBN","city":"San Antonio de Pale","country":"Equatorial Guinea","longitude":5.621944,"latitude":-1.410277},"AQG":{"name":"Anqing Tianzhushan Airport","iata":"AQG","city":"Anqing","country":"China","longitude":117.050003,"latitude":30.582199},"AOG":{"name":"Anshan Air Base","iata":"AOG","city":"Anshan","country":"China","longitude":122.853996,"latitude":41.105301},"AVA":{"name":"Anshun Huangguoshu Airport","iata":"AVA","city":"Anshun","country":"China","longitude":105.873333,"latitude":26.260556},"AYT":{"name":"Antalya International Airport","iata":"AYT","city":"Antalya","country":"Turkey","longitude":30.800501,"latitude":36.898701},"OES":{"name":"Antoine de Saint Exupéry Airport","iata":"OES","city":"San Antonio Oeste","country":"Argentina","longitude":-65.0343,"latitude":-40.7512},"GUM":{"name":"Antonio B. Won Pat International Airport","iata":"GUM","city":"Agana","country":"Guam","longitude":144.796005,"latitude":13.4834},"SCU":{"name":"Antonio Maceo International Airport","iata":"SCU","city":"Santiago De Cuba","country":"Cuba","longitude":-75.835403,"latitude":19.969801},"PSO":{"name":"Antonio Narino Airport","iata":"PSO","city":"Pasto","country":"Colombia","longitude":-77.2915,"latitude":1.39625},"ARE":{"name":"Antonio Nery Juarbe Pol Airport","iata":"ARE","city":"Arecibo","country":"Puerto Rico","longitude":-66.675301,"latitude":18.450001},"APO":{"name":"Antonio Roldan Betancourt Airport","iata":"APO","city":"Carepa","country":"Colombia","longitude":-76.7164,"latitude":7.81196},"WAQ":{"name":"Antsalova Airport","iata":"WAQ","city":"Antsalova","country":"Madagascar","longitude":44.614921,"latitude":-18.701273},"ANM":{"name":"Antsirabato Airport","iata":"ANM","city":"Antalaha","country":"Madagascar","longitude":50.320202,"latitude":-14.9994},"ATJ":{"name":"Antsirabe Airport","iata":"ATJ","city":"Antsirabe","country":"Madagascar","longitude":47.063713,"latitude":-19.839221},"ANR":{"name":"Antwerp International Airport (Deurne)","iata":"ANR","city":"Antwerp","country":"Belgium","longitude":4.46028,"latitude":51.1894},"ACJ":{"name":"Anuradhapura Air Force Base","iata":"ACJ","city":"Anuradhapura","country":"Sri Lanka","longitude":80.427902,"latitude":8.30149},"ANV":{"name":"Anvik Airport","iata":"ANV","city":"Anvik","country":"United States","longitude":-160.190994,"latitude":62.646702},"AOJ":{"name":"Aomori Airport","iata":"AOJ","city":"Aomori","country":"Japan","longitude":140.690994,"latitude":40.734699},"AOT":{"name":"Aosta Airport","iata":"AOT","city":"Aosta","country":"Italy","longitude":7.36872,"latitude":45.738499},"AAF":{"name":"Apalachicola Regional Airport","iata":"AAF","city":"Apalachicola","country":"United States","longitude":-85.027496,"latitude":29.727501},"APK":{"name":"Apataki Airport","iata":"APK","city":"Apataki","country":"French Polynesia","longitude":-146.414993,"latitude":-15.5736},"ATW":{"name":"Appleton International Airport","iata":"ATW","city":"Appleton","country":"United States","longitude":-88.519096,"latitude":44.258099},"AQJ":{"name":"Aqaba King Hussein International Airport","iata":"AQJ","city":"Aqaba","country":"Jordan","longitude":35.018101,"latitude":29.611601},"ARU":{"name":"Araçatuba Airport","iata":"ARU","city":"Aracatuba","country":"Brazil","longitude":-50.424702,"latitude":-21.1413},"ARW":{"name":"Arad International Airport","iata":"ARW","city":"Arad","country":"Romania","longitude":21.261999,"latitude":46.176601},"AUX":{"name":"Araguaína Airport","iata":"AUX","city":"Araguaina","country":"Brazil","longitude":-48.240501,"latitude":-7.22787},"AJK":{"name":"Arak Airport","iata":"AJK","city":"Arak","country":"Iran","longitude":49.847301,"latitude":34.1381},"ADI":{"name":"Arandis Airport","iata":"ADI","city":"Arandis","country":"Namibia","longitude":14.98,"latitude":-22.4622},"RKP":{"name":"Aransas County Airport","iata":"RKP","city":"Rockport","country":"United States","longitude":-97.044601,"latitude":28.0868},"APQ":{"name":"Arapiraca Airport","iata":"APQ","city":"Arapiraca","country":"Brazil","longitude":-36.6292,"latitude":-9.77536},"RAE":{"name":"Arar Domestic Airport","iata":"RAE","city":"Arar","country":"Saudi Arabia","longitude":41.138199,"latitude":30.906601},"ACR":{"name":"Araracuara Airport","iata":"ACR","city":"Araracuara","country":"Colombia","longitude":-72.4083,"latitude":-0.5833},"AQA":{"name":"Araraquara Airport","iata":"AQA","city":"Araracuara","country":"Brazil","longitude":-48.132999,"latitude":-21.812},"ARY":{"name":"Ararat Airport","iata":"ARY","city":"","country":"Australia","longitude":142.988998,"latitude":-37.309399},"ASS":{"name":"Arathusa Safari Lodge Airport","iata":"ASS","city":"Arathusa","country":"South Africa","longitude":31.522499,"latitude":-24.744165},"GPA":{"name":"Araxos Airport","iata":"GPA","city":"Patras","country":"Greece","longitude":21.4256,"latitude":38.1511},"AMH":{"name":"Arba Minch Airport","iata":"AMH","city":"Arba Minch","country":"Ethiopia","longitude":37.5905,"latitude":6.03939},"ARC":{"name":"Arctic Village Airport","iata":"ARC","city":"Arctic Village","country":"United States","longitude":-145.578995,"latitude":68.1147},"ADU":{"name":"Ardabil Airport","iata":"ADU","city":"Ardabil","country":"Iran","longitude":48.4244,"latitude":38.325699},"AMZ":{"name":"Ardmore Airport","iata":"AMZ","city":"Ardmore","country":"New Zealand","longitude":174.973007,"latitude":-37.029701},"ADM":{"name":"Ardmore Municipal Airport","iata":"ADM","city":"Ardmore","country":"United States","longitude":-97.019634,"latitude":34.30301},"OSD":{"name":"Åre Östersund Airport","iata":"OSD","city":"Östersund","country":"Sweden","longitude":14.5003,"latitude":63.194401},"RCU":{"name":"Area De Material Airport","iata":"RCU","city":"Rio Cuarto","country":"Argentina","longitude":-64.261299,"latitude":-33.085098},"FON":{"name":"Arenal Airport","iata":"FON","city":"La Fortuna/San Carlos","country":"Costa Rica","longitude":-84.634499,"latitude":10.478},"GYL":{"name":"Argyle Airport","iata":"GYL","city":"Argyle","country":"Australia","longitude":128.451004,"latitude":-16.6369},"SVD":{"name":"Argyle International Airport","iata":"SVD","city":"Kingstown","country":"Saint Vincent and the Grenadines","longitude":-61.149945,"latitude":13.156695},"AIR":{"name":"Aripuanã Airport","iata":"AIR","city":"Aripuana","country":"Brazil","longitude":-59.457273,"latitude":-10.188278},"AYK":{"name":"Arkalyk North Airport","iata":"AYK","city":"Arkalyk","country":"Kazakhstan","longitude":66.952797,"latitude":50.3186},"BYH":{"name":"Arkansas International Airport","iata":"BYH","city":"Blytheville","country":"United States","longitude":-89.944,"latitude":35.964298},"ARM":{"name":"Armidale Airport","iata":"ARM","city":"Armidale","country":"Australia","longitude":151.617004,"latitude":-30.528099},"YYW":{"name":"Armstrong Airport","iata":"YYW","city":"Armstrong","country":"Canada","longitude":-88.909698,"latitude":50.290298},"LBE":{"name":"Arnold Palmer Regional Airport","iata":"LBE","city":"Latrobe","country":"United States","longitude":-79.4048,"latitude":40.275902},"AIS":{"name":"Arorae Island Airport","iata":"AIS","city":"Arorae","country":"Kiribati","longitude":176.802994,"latitude":-2.61611},"DIE":{"name":"Arrachart Airport","iata":"DIE","city":"Antsiranana","country":"Madagascar","longitude":49.291698,"latitude":-12.3494},"ATC":{"name":"Arthur's Town Airport","iata":"ATC","city":"Arthur's Town","country":"Bahamas","longitude":-75.673797,"latitude":24.6294},"ATI":{"name":"Artigas International Airport","iata":"ATI","city":"Artigas","country":"Uruguay","longitude":-56.5079,"latitude":-30.4007},"VLN":{"name":"Arturo Michelena International Airport","iata":"VLN","city":"Valencia","country":"Venezuela","longitude":-67.928398,"latitude":10.149733},"RUA":{"name":"Arua Airport","iata":"RUA","city":"Arua","country":"Uganda","longitude":30.917,"latitude":3.05},"ARK":{"name":"Arusha Airport","iata":"ARK","city":"Arusha","country":"Tanzania","longitude":36.633301,"latitude":-3.36779},"AXR":{"name":"Arutua Airport","iata":"AXR","city":"Arutua","country":"French Polynesia","longitude":-146.617004,"latitude":-15.2483},"AVK":{"name":"Arvaikheer Airport","iata":"AVK","city":"Arvaikheer","country":"Mongolia","longitude":102.802002,"latitude":46.250301},"YEK":{"name":"Arviat Airport","iata":"YEK","city":"Eskimo Point","country":"Canada","longitude":-94.070801,"latitude":61.0942},"AJR":{"name":"Arvidsjaur Airport","iata":"AJR","city":"Arvidsjaur","country":"Sweden","longitude":19.2819,"latitude":65.590302},"YIE":{"name":"Arxan Yi'ershi Airport","iata":"YIE","city":"Arxan","country":"China","longitude":119.9117,"latitude":47.3106},"ABB":{"name":"Asaba International Airport","iata":"ABB","city":"Asaba","country":"Nigeria","longitude":6.665278,"latitude":6.204167},"AKJ":{"name":"Asahikawa Airport","iata":"AKJ","city":"Asahikawa","country":"Japan","longitude":142.447006,"latitude":43.670799},"AVL":{"name":"Asheville Regional Airport","iata":"AVL","city":"Asheville","country":"United States","longitude":-82.541801,"latitude":35.436199},"ASB":{"name":"Ashgabat International Airport","iata":"ASB","city":"Ashkhabad","country":"Turkmenistan","longitude":58.361,"latitude":37.986801},"ASM":{"name":"Asmara International Airport","iata":"ASM","city":"Asmara","country":"Eritrea","longitude":38.910702,"latitude":15.2919},"ASO":{"name":"Asosa Airport","iata":"ASO","city":"Asosa","country":"Ethiopia","longitude":34.5863,"latitude":10.0185},"ASE":{"name":"Aspen-Pitkin Co/Sardy Field","iata":"ASE","city":"Aspen","country":"United States","longitude":-106.869003,"latitude":39.223202},"ASA":{"name":"Assab International Airport","iata":"ASA","city":"Assab","country":"Eritrea","longitude":42.645,"latitude":13.0718},"ATZ":{"name":"Assiut International Airport","iata":"ATZ","city":"Asyut","country":"Egypt","longitude":31.011999,"latitude":27.046499},"TSE":{"name":"Astana International Airport","iata":"TSE","city":"Tselinograd","country":"Kazakhstan","longitude":71.466904,"latitude":51.022202},"MDQ":{"name":"Ástor Piazzola International Airport","iata":"MDQ","city":"Mar Del Plata","country":"Argentina","longitude":-57.5733,"latitude":-37.9342},"AST":{"name":"Astoria Regional Airport","iata":"AST","city":"Astoria","country":"United States","longitude":-123.878998,"latitude":46.158001},"ASF":{"name":"Astrakhan Airport","iata":"ASF","city":"Astrakhan","country":"Russia","longitude":48.006302,"latitude":46.283298},"OVD":{"name":"Asturias Airport","iata":"OVD","city":"Aviles","country":"Spain","longitude":-6.03462,"latitude":43.563599},"JTY":{"name":"Astypalaia Airport","iata":"JTY","city":"Astypalaia","country":"Greece","longitude":26.375799,"latitude":36.579899},"ASW":{"name":"Aswan International Airport","iata":"ASW","city":"Aswan","country":"Egypt","longitude":32.82,"latitude":23.964399},"AXK":{"name":"Ataq Airport","iata":"AXK","city":"Ataq","country":"Yemen","longitude":46.826199,"latitude":14.5513},"ATR":{"name":"Atar International Airport","iata":"ATR","city":"Atar","country":"Mauritania","longitude":-13.0432,"latitude":20.5068},"ISL":{"name":"Atatürk International Airport","iata":"ISL","city":"Istanbul","country":"Turkey","longitude":28.8146,"latitude":40.976898},"ATB":{"name":"Atbara Airport","iata":"ATB","city":"Atbara","country":"Sudan","longitude":34.057018,"latitude":17.710344},"HEW":{"name":"Athen Helenikon Airport","iata":"HEW","city":"Athens","country":"Greece","longitude":23.726101,"latitude":37.893299},"AHN":{"name":"Athens Ben Epps Airport","iata":"AHN","city":"Athens","country":"United States","longitude":-83.326302,"latitude":33.948601},"YIB":{"name":"Atikokan Municipal Airport","iata":"YIB","city":"Atikokan","country":"Canada","longitude":-91.638603,"latitude":48.773899},"AKB":{"name":"Atka Airport","iata":"AKB","city":"Atka","country":"United States","longitude":-174.205994,"latitude":52.220299},"ACY":{"name":"Atlantic City International Airport","iata":"ACY","city":"Atlantic City","country":"United States","longitude":-74.577202,"latitude":39.4576},"BVB":{"name":"Atlas Brasil Cantanhede Airport","iata":"BVB","city":"Boa Vista","country":"Brazil","longitude":-60.692223,"latitude":2.841389},"ATK":{"name":"Atqasuk Edward Burnell Sr Memorial Airport","iata":"ATK","city":"Atqasuk","country":"United States","longitude":-157.436005,"latitude":70.4673},"NJA":{"name":"Atsugi Naval Air Facility","iata":"NJA","city":"Atsugi","country":"Japan","longitude":139.449997,"latitude":35.454601},"YAT":{"name":"Attawapiskat Airport","iata":"YAT","city":"Attawapiskat","country":"Canada","longitude":-82.4319,"latitude":52.927502},"AOU":{"name":"Attopeu Airport","iata":"AOU","city":"Attopeu","country":"Laos","longitude":106.821699,"latitude":14.814715},"QGQ":{"name":"Attu Heliport","iata":"QGQ","city":"Attu","country":"Greenland","longitude":-53.62187,"latitude":67.940663},"GUW":{"name":"Atyrau Airport","iata":"GUW","city":"Atyrau","country":"Kazakhstan","longitude":51.8214,"latitude":47.121899},"OBS":{"name":"Aubenas-Ardèche Méridional Airport","iata":"OBS","city":"Aubenas-vals-lanas","country":"France","longitude":4.372192,"latitude":44.544203},"LEW":{"name":"Auburn Lewiston Municipal Airport","iata":"LEW","city":"Lewiston","country":"United States","longitude":-70.283501,"latitude":44.0485},"AUO":{"name":"Auburn University Regional Airport","iata":"AUO","city":"Auburn","country":"United States","longitude":-85.433998,"latitude":32.615101},"AKL":{"name":"Auckland International Airport","iata":"AKL","city":"Auckland","country":"New Zealand","longitude":174.792007,"latitude":-37.008099},"AGB":{"name":"Augsburg Airport","iata":"AGB","city":"Augsburg","country":"Germany","longitude":10.931667,"latitude":48.425278},"AGS":{"name":"Augusta Regional At Bush Field","iata":"AGS","city":"Bush Field","country":"United States","longitude":-81.9645,"latitude":33.3699},"AUG":{"name":"Augusta State Airport","iata":"AUG","city":"Augusta","country":"United States","longitude":-69.797302,"latitude":44.320599},"MGA":{"name":"Augusto C. Sandino (Managua) International Airport","iata":"MGA","city":"Managua","country":"Nicaragua","longitude":-86.168198,"latitude":12.1415},"YPJ":{"name":"Aupaluk Airport","iata":"YPJ","city":"Aupaluk","country":"Canada","longitude":-69.599701,"latitude":59.2967},"IXU":{"name":"Aurangabad Airport","iata":"IXU","city":"Aurangabad","country":"India","longitude":75.398102,"latitude":19.8627},"AUR":{"name":"Aurillac Airport","iata":"AUR","city":"Aurillac","country":"France","longitude":2.42194,"latitude":44.891399},"AUU":{"name":"Aurukun Airport","iata":"AUU","city":"Aurukun","country":"Australia","longitude":141.72065,"latitude":-13.354067},"AUS":{"name":"Austin Bergstrom International Airport","iata":"AUS","city":"Austin","country":"United States","longitude":-97.669899,"latitude":30.1945},"GRB":{"name":"Austin Straubel International Airport","iata":"GRB","city":"Green Bay","country":"United States","longitude":-88.129601,"latitude":44.4851},"AUF":{"name":"Auxerre-Branches Airport","iata":"AUF","city":"Auxerre","country":"France","longitude":3.49711,"latitude":47.850201},"AVV":{"name":"Avalon Airport","iata":"AVV","city":"Avalon","country":"Australia","longitude":144.468994,"latitude":-38.039398},"CPC":{"name":"Aviador C. Campos Airport","iata":"CPC","city":"San Martin Des Andes","country":"Argentina","longitude":-71.137299,"latitude":-40.075401},"AVB":{"name":"Aviano Air Base","iata":"AVB","city":"Aviano","country":"Italy","longitude":12.596503,"latitude":46.031898},"AVN":{"name":"Avignon-Caumont Airport","iata":"AVN","city":"Avignon","country":"France","longitude":4.90183,"latitude":43.907299},"AVO":{"name":"Avon Park Executive Airport","iata":"AVO","city":"Avon Park","country":"United States","longitude":-81.527802,"latitude":27.5912},"CBO":{"name":"Awang Airport","iata":"CBO","city":"Cotabato","country":"Philippines","longitude":124.209999,"latitude":7.16524},"AWA":{"name":"Awassa Airport","iata":"AWA","city":"Awasa","country":"Ethiopia","longitude":38.5,"latitude":7.067},"AXU":{"name":"Axum Airport","iata":"AXU","city":"Axum","country":"Ethiopia","longitude":38.7728,"latitude":14.1468},"AYW":{"name":"Ayawasi Airport","iata":"AYW","city":"Ayawasi","country":"Indonesia","longitude":132.4633,"latitude":-1.1593},"AYQ":{"name":"Ayers Rock Connellan Airport","iata":"AYQ","city":"Uluru","country":"Australia","longitude":130.975998,"latitude":-25.1861},"AJI":{"name":"Ağrı Airport","iata":"AJI","city":"Agri","country":"Turkey","longitude":43.025978,"latitude":39.654541},"MBU":{"name":"Babanakira Airport","iata":"MBU","city":"Mbambanakira","country":"Solomon Islands","longitude":159.839005,"latitude":-9.7475},"ROR":{"name":"Babelthuap Airport","iata":"ROR","city":"Babelthuap","country":"Palau","longitude":134.544236,"latitude":7.36731},"BXB":{"name":"Babo Airport","iata":"BXB","city":"Babo","country":"Indonesia","longitude":133.438995,"latitude":-2.53224},"BFH":{"name":"Bacacheri Airport","iata":"BFH","city":"Curitiba","country":"Brazil","longitude":-49.231998,"latitude":-25.4051},"CUL":{"name":"Bachigualato Federal International Airport","iata":"CUL","city":"Culiacan","country":"Mexico","longitude":-107.474998,"latitude":24.7645},"BCO":{"name":"Baco Airport","iata":"BCO","city":"Baco","country":"Ethiopia","longitude":36.562,"latitude":5.78287},"BCD":{"name":"Bacolod-Silay Airport","iata":"BCD","city":"Bacolod","country":"Philippines","longitude":123.014999,"latitude":10.7764},"BCM":{"name":"Bacău Airport","iata":"BCM","city":"Bacau","country":"Romania","longitude":26.910299,"latitude":46.5219},"BJZ":{"name":"Badajoz Airport","iata":"BJZ","city":"Badajoz","country":"Spain","longitude":-6.82133,"latitude":38.8913},"BDD":{"name":"Badu Island Airport","iata":"BDD","city":"Badu Island","country":"Australia","longitude":142.1734,"latitude":-10.15},"BFX":{"name":"Bafoussam Airport","iata":"BFX","city":"Bafoussam","country":"Cameroon","longitude":10.3546,"latitude":5.53692},"NYU":{"name":"Bagan Airport","iata":"NYU","city":"Bagan","country":"Burma","longitude":94.930199,"latitude":21.178801},"IXB":{"name":"Bagdogra Airport","iata":"IXB","city":"Baghdogra","country":"India","longitude":88.328598,"latitude":26.6812},"BGW":{"name":"Baghdad International Airport","iata":"BGW","city":"Baghdad","country":"Iraq","longitude":44.2346,"latitude":33.262501},"BGL":{"name":"Baglung Airport","iata":"BGL","city":"Baglung","country":"Nepal","longitude":83.666298,"latitude":28.212799},"OAI":{"name":"Bagram Air Base","iata":"OAI","city":"Kabul","country":"Afghanistan","longitude":69.264999,"latitude":34.946098},"BHV":{"name":"Bahawalpur Airport","iata":"BHV","city":"Bahawalpur","country":"Pakistan","longitude":71.718002,"latitude":29.348101},"IOS":{"name":"Bahia - Jorge Amado Airport","iata":"IOS","city":"Ilheus","country":"Brazil","longitude":-39.033199,"latitude":-14.816},"HUX":{"name":"Bahías de Huatulco International Airport","iata":"HUX","city":"Huatulco","country":"Mexico","longitude":-96.262604,"latitude":15.7753},"BJR":{"name":"Bahir Dar Airport","iata":"BJR","city":"Bahar Dar","country":"Ethiopia","longitude":37.321602,"latitude":11.6081},"BAH":{"name":"Bahrain International Airport","iata":"BAH","city":"Bahrain","country":"Bahrain","longitude":50.633598,"latitude":26.2708},"DBC":{"name":"Baicheng Chang'an Airport","iata":"DBC","city":"Baicheng","country":"China","longitude":123.019722,"latitude":45.505278},"BIB":{"name":"Baidoa Airport","iata":"BIB","city":"Baidoa","country":"Somalia","longitude":43.628601,"latitude":3.10222},"YBC":{"name":"Baie Comeau Airport","iata":"YBC","city":"Baie Comeau","country":"Canada","longitude":-68.204399,"latitude":49.1325},"BBR":{"name":"Baillif Airport","iata":"BBR","city":"Basse Terre","country":"Guadeloupe","longitude":-61.742199,"latitude":16.0133},"VMU":{"name":"Baimuru Airport","iata":"VMU","city":"Baimuru","country":"Papua New Guinea","longitude":144.819901,"latitude":-7.49686},"BSJ":{"name":"Bairnsdale Airport","iata":"BSJ","city":"Bairnsdale","country":"Australia","longitude":147.567993,"latitude":-37.887501},"AEB":{"name":"Baise Youjiang Airport","iata":"AEB","city":"Baise","country":"China","longitude":106.959999,"latitude":23.7206},"HET":{"name":"Baita International Airport","iata":"HET","city":"Hohhot","country":"China","longitude":111.823997,"latitude":40.851398},"BJW":{"name":"Bajawa Soa Airport","iata":"BJW","city":"Bajawa","country":"Indonesia","longitude":121.057427,"latitude":-8.707435},"BJH":{"name":"Bajhang Airport","iata":"BJH","city":"Bajhang","country":"Nepal","longitude":81.185402,"latitude":29.539},"BJU":{"name":"Bajura Airport","iata":"BJU","city":"Bajura","country":"Nepal","longitude":81.668999,"latitude":29.502001},"BKM":{"name":"Bakalalan Airport","iata":"BKM","city":"Bakalalan","country":"Malaysia","longitude":115.617996,"latitude":3.974},"BXE":{"name":"Bakel Airport","iata":"BXE","city":"Bakel","country":"Senegal","longitude":-12.4683,"latitude":14.8473},"BKE":{"name":"Baker City Municipal Airport","iata":"BKE","city":"Baker City","country":"United States","longitude":-117.808998,"latitude":44.837299},"YBK":{"name":"Baker Lake Airport","iata":"YBK","city":"Baker Lake","country":"Canada","longitude":-96.077797,"latitude":64.298897},"BWO":{"name":"Balakovo Airport","iata":"BWO","city":"Balakovo","country":"Russia","longitude":47.745602,"latitude":51.858299},"OPU":{"name":"Balimo Airport","iata":"OPU","city":"Balimo","country":"Papua New Guinea","longitude":142.932999,"latitude":-8.05},"BXH":{"name":"Balkhash Airport","iata":"BXH","city":"Balkhash","country":"Kazakhstan","longitude":75.004997,"latitude":46.893299},"BAS":{"name":"Ballalae Airport","iata":"BAS","city":"Ballalae","country":"Solomon Islands","longitude":155.886656,"latitude":-6.990745},"BBL":{"name":"Ballera Airport","iata":"BBL","city":"Ballera","country":"Australia","longitude":141.809458,"latitude":-27.405633},"BNK":{"name":"Ballina Byron Gateway Airport","iata":"BNK","city":"Ballina Byron Bay","country":"Australia","longitude":153.561996,"latitude":-28.8339},"BBA":{"name":"Balmaceda Airport","iata":"BBA","city":"Balmaceda","country":"Chile","longitude":-71.689499,"latitude":-45.9161},"BZD":{"name":"Balranald Airport","iata":"BZD","city":"","country":"Australia","longitude":143.578003,"latitude":-34.6236},"BWI":{"name":"Baltimore/Washington International Thurgood Marshall Airport","iata":"BWI","city":"Baltimore","country":"United States","longitude":-76.668297,"latitude":39.1754},"BMR":{"name":"Baltrum Airport","iata":"BMR","city":"Baltrum","country":"Germany","longitude":7.373333,"latitude":53.724724},"EDO":{"name":"Balıkesir Körfez Airport","iata":"EDO","city":"Balikesir Korfez","country":"Turkey","longitude":27.0138,"latitude":39.5546},"BZI":{"name":"Balıkesir Merkez Airport","iata":"BZI","city":"Balikesir","country":"Turkey","longitude":27.926001,"latitude":39.619301},"BXR":{"name":"Bam Airport","iata":"BXR","city":"Bam","country":"Iran","longitude":58.450001,"latitude":29.0842},"BPC":{"name":"Bamenda Airport","iata":"BPC","city":"Bamenda","country":"Cameroon","longitude":10.1226,"latitude":6.03924},"BIN":{"name":"Bamiyan Airport","iata":"BIN","city":"Bamyan","country":"Afghanistan","longitude":67.817001,"latitude":34.817001},"HOE":{"name":"Ban Huoeisay Airport","iata":"HOE","city":"Huay Xai","country":"Laos","longitude":100.436996,"latitude":20.257299},"LKL":{"name":"Banak Airport","iata":"LKL","city":"Lakselv","country":"Norway","longitude":24.973499,"latitude":70.068802},"BXU":{"name":"Bancasi Airport","iata":"BXU","city":"Butuan","country":"Philippines","longitude":125.4788,"latitude":8.9515},"BND":{"name":"Bandar Abbas International Airport","iata":"BND","city":"Bandar Abbas","country":"Iran","longitude":56.3778,"latitude":27.2183},"BDH":{"name":"Bandar Lengeh Airport","iata":"BDH","city":"Bandar Lengeh","country":"Iran","longitude":54.824799,"latitude":26.532},"CMB":{"name":"Bandaranaike International Colombo Airport","iata":"CMB","city":"Colombo","country":"Sri Lanka","longitude":79.884102,"latitude":7.18076},"FDU":{"name":"Bandundu Airport","iata":"FDU","city":"Bandoundu","country":"Congo (Kinshasa)","longitude":17.381701,"latitude":-3.31132},"BDM":{"name":"Bandırma Airport","iata":"BDM","city":"Bandirma","country":"Turkey","longitude":27.977699,"latitude":40.318001},"YBA":{"name":"Banff Airport","iata":"YBA","city":"Banff","country":"Canada","longitude":-115.541861,"latitude":51.20734},"FKI":{"name":"Bangoka International Airport","iata":"FKI","city":"Kisangani","country":"Congo (Kinshasa)","longitude":25.337999,"latitude":0.481639},"BGR":{"name":"Bangor International Airport","iata":"BGR","city":"Bangor","country":"United States","longitude":-68.828102,"latitude":44.8074},"BGF":{"name":"Bangui M'Poko International Airport","iata":"BGF","city":"Bangui","country":"Central African Republic","longitude":18.518801,"latitude":4.39848},"BNX":{"name":"Banja Luka International Airport","iata":"BNX","city":"Banja Luka","country":"Bosnia and Herzegovina","longitude":17.297501,"latitude":44.941399},"BJL":{"name":"Banjul International Airport","iata":"BJL","city":"Banjul","country":"Gambia","longitude":-16.652201,"latitude":13.338},"BMO":{"name":"Banmaw Airport","iata":"BMO","city":"Banmaw","country":"Burma","longitude":97.246201,"latitude":24.268999},"BNG":{"name":"Banning Municipal Airport","iata":"BNG","city":"Banning","country":"United States","longitude":-116.850998,"latitude":33.9231},"BNP":{"name":"Bannu Airport","iata":"BNP","city":"Bannu","country":"Pakistan","longitude":70.527901,"latitude":32.9729},"BYT":{"name":"Bantry Aerodrome","iata":"BYT","city":"Bantry","country":"Ireland","longitude":-9.48417,"latitude":51.668598},"PZI":{"name":"Bao'anying Airport","iata":"PZI","city":"Panzhihua","country":"China","longitude":101.79852,"latitude":26.54},"BSD":{"name":"Baoshan Yunduan Airport","iata":"BSD","city":"Baoshan","country":"China","longitude":99.168297,"latitude":25.053301},"BAV":{"name":"Baotou Airport","iata":"BAV","city":"Baotou","country":"China","longitude":109.997002,"latitude":40.560001},"MTZ":{"name":"Bar Yehuda Airfield","iata":"MTZ","city":"Metzada","country":"Israel","longitude":35.388599,"latitude":31.328199},"MGN":{"name":"Baracoa Airport","iata":"MGN","city":"Magangue","country":"Colombia","longitude":-74.8461,"latitude":9.28474},"BCI":{"name":"Barcaldine Airport","iata":"BCI","city":"Barcaldine","country":"Australia","longitude":145.307007,"latitude":-23.5653},"BCN":{"name":"Barcelona International Airport","iata":"BCN","city":"Barcelona","country":"Spain","longitude":2.07846,"latitude":41.2971},"BAZ":{"name":"Barcelos Airport","iata":"BAZ","city":"Barcelos","country":"Brazil","longitude":-62.919601,"latitude":-0.981292},"BDU":{"name":"Bardufoss Airport","iata":"BDU","city":"Bardufoss","country":"Norway","longitude":18.5404,"latitude":69.055801},"BEK":{"name":"Bareilly Air Force Station","iata":"BEK","city":"Bareilly","country":"India","longitude":79.450798,"latitude":28.4221},"BRI":{"name":"Bari Karol Wojtyła Airport","iata":"BRI","city":"Bari","country":"Italy","longitude":16.760599,"latitude":41.138901},"BYP":{"name":"Barimunya Airport","iata":"BYP","city":"Barimunya","country":"Australia","longitude":119.166,"latitude":-22.673901},"BNS":{"name":"Barinas Airport","iata":"BNS","city":"Barinas","country":"Venezuela","longitude":-70.214167,"latitude":8.615},"BBN":{"name":"Bario Airport","iata":"BBN","city":"Bario","country":"Malaysia","longitude":115.478996,"latitude":3.73389},"BZL":{"name":"Barisal Airport","iata":"BZL","city":"Barisal","country":"Bangladesh","longitude":90.301201,"latitude":22.801001},"BKH":{"name":"Barking Sands Airport","iata":"BKH","city":"Barking Sands","country":"United States","longitude":-159.785004,"latitude":22.0228},"PAH":{"name":"Barkley Regional Airport","iata":"PAH","city":"PADUCAH","country":"United States","longitude":-88.773804,"latitude":37.060799},"BAD":{"name":"Barksdale Air Force Base","iata":"BAD","city":"Shreveport","country":"United States","longitude":-93.662697,"latitude":32.501801},"BAX":{"name":"Barnaul Airport","iata":"BAX","city":"Barnaul","country":"Russia","longitude":83.538498,"latitude":53.3638},"HYA":{"name":"Barnstable Municipal Boardman Polando Field","iata":"HYA","city":"Barnstable","country":"United States","longitude":-70.280403,"latitude":41.6693},"BRM":{"name":"Barquisimeto International Airport","iata":"BRM","city":"Barquisimeto","country":"Venezuela","longitude":-69.35862,"latitude":10.042747},"BRR":{"name":"Barra Airport","iata":"BRR","city":"Barra","country":"United Kingdom","longitude":-7.44306,"latitude":57.0228},"BCL":{"name":"Barra del Colorado Airport","iata":"BCL","city":"Pococi","country":"Costa Rica","longitude":-83.585602,"latitude":10.7687},"BPG":{"name":"Barra do Garças Airport","iata":"BPG","city":"Barra Do Garcas","country":"Brazil","longitude":-52.388901,"latitude":-15.8613},"BRA":{"name":"Barreiras Airport","iata":"BRA","city":"Barreiras","country":"Brazil","longitude":-45.008999,"latitude":-12.0789},"YLK":{"name":"Barrie-Orillia (Lake Simcoe Regional Airport)","iata":"YLK","city":"Barrie-Orillia","country":"Canada","longitude":-79.555603,"latitude":44.485298},"TOQ":{"name":"Barriles Airport","iata":"TOQ","city":"Tocopilla","country":"Chile","longitude":-70.062897,"latitude":-22.1411},"WDR":{"name":"Barrow County Airport","iata":"WDR","city":"Winder","country":"United States","longitude":-83.667397,"latitude":33.982899},"BWB":{"name":"Barrow Island Airport","iata":"BWB","city":"Barrow Island","country":"Australia","longitude":115.405998,"latitude":-20.864401},"BWF":{"name":"Barrow Walney Island Airport","iata":"BWF","city":"Barrow Island","country":"United Kingdom","longitude":-3.2675,"latitude":54.128611},"DAG":{"name":"Barstow Daggett Airport","iata":"DAG","city":"Daggett","country":"United States","longitude":-116.787003,"latitude":34.853699},"BTI":{"name":"Barter Island LRRS Airport","iata":"BTI","city":"Barter Island","country":"United States","longitude":-143.582001,"latitude":70.134003},"BBH":{"name":"Barth Airport","iata":"BBH","city":"Barth","country":"Germany","longitude":12.710515,"latitude":54.338253},"GFO":{"name":"Bartica A Airport","iata":"GFO","city":"Bartica","country":"Guyana","longitude":-58.655207,"latitude":6.358864},"CAW":{"name":"Bartolomeu Lisandro Airport","iata":"CAW","city":"Campos","country":"Brazil","longitude":-41.301701,"latitude":-21.698299},"BOW":{"name":"Bartow Municipal Airport","iata":"BOW","city":"Bartow","country":"United States","longitude":-81.783401,"latitude":27.943399},"UUN":{"name":"Baruun Urt Airport","iata":"UUN","city":"","country":"Mongolia","longitude":113.285004,"latitude":46.660301},"HLJ":{"name":"Barysiai Airport","iata":"HLJ","city":"Barysiai","country":"Lithuania","longitude":23.5581,"latitude":56.070599},"KRZ":{"name":"Basango Mboliasa Airport","iata":"KRZ","city":"Kiri","country":"Congo (Kinshasa)","longitude":19.024,"latitude":-1.435},"BSU":{"name":"Basankusu Airport","iata":"BSU","city":"Basankusu","country":"Congo (Kinshasa)","longitude":19.7889,"latitude":1.22472},"BSO":{"name":"Basco Airport","iata":"BSO","city":"Basco","country":"Philippines","longitude":121.980003,"latitude":20.4513},"SSZ":{"name":"Base Aérea de Santos Airport","iata":"SSZ","city":"Santos","country":"Brazil","longitude":-46.299721,"latitude":-23.928057},"QHP":{"name":"Base de Aviação de Taubaté Airport","iata":"QHP","city":"Taubaté","country":"Brazil","longitude":-45.515999,"latitude":-23.0401},"BSR":{"name":"Basrah International Airport","iata":"BSR","city":"Basrah","country":"Iraq","longitude":47.662102,"latitude":30.549101},"MEK":{"name":"Bassatine Airport","iata":"MEK","city":"Meknes","country":"Morocco","longitude":-5.51512,"latitude":33.879101},"LTK":{"name":"Bassel Al-Assad International Airport","iata":"LTK","city":"Latakia","country":"Syria","longitude":35.9487,"latitude":35.4011},"BIA":{"name":"Bastia-Poretta Airport","iata":"BIA","city":"Bastia","country":"France","longitude":9.48373,"latitude":42.5527},"BSG":{"name":"Bata Airport","iata":"BSG","city":"Bata","country":"Equatorial Guinea","longitude":9.80568,"latitude":1.90547},"BQJ":{"name":"Batagay Airport","iata":"BQJ","city":"Batagay","country":"Russia","longitude":134.695007,"latitude":67.648003},"BJY":{"name":"Batajnica Air Base","iata":"BJY","city":"Batajnica","country":"Serbia","longitude":20.2575,"latitude":44.935299},"AZI":{"name":"Bateen Airport","iata":"AZI","city":"Abu Dhabi","country":"United Arab Emirates","longitude":54.458099,"latitude":24.428301},"BUT":{"name":"Bathpalathang Airport","iata":"BUT","city":"Jakar","country":"Bhutan","longitude":90.7471,"latitude":27.5622},"BHS":{"name":"Bathurst Airport","iata":"BHS","city":"Bathurst","country":"Australia","longitude":149.651993,"latitude":-33.409401},"ZBF":{"name":"Bathurst Airport","iata":"ZBF","city":"Bathurst","country":"Canada","longitude":-65.738899,"latitude":47.6297},"BRT":{"name":"Bathurst Island Airport","iata":"BRT","city":"Bathurst Island","country":"Australia","longitude":130.619995,"latitude":-11.7692},"BAL":{"name":"Batman Airport","iata":"BAL","city":"Batman","country":"Turkey","longitude":41.1166,"latitude":37.929001},"BLJ":{"name":"Batna Airport","iata":"BLJ","city":"Batna","country":"Algeria","longitude":6.30859,"latitude":35.752102},"BTR":{"name":"Baton Rouge Metropolitan Airport","iata":"BTR","city":"Baton Rouge","country":"United States","longitude":-91.149597,"latitude":30.533199},"BJF":{"name":"Båtsfjord Airport","iata":"BJF","city":"Batsfjord","country":"Norway","longitude":29.691401,"latitude":70.600502},"BBM":{"name":"Battambang Airport","iata":"BBM","city":"Battambang","country":"Cambodia","longitude":103.223999,"latitude":13.0956},"BTC":{"name":"Batticaloa Airport","iata":"BTC","city":"Batticaloa","country":"Sri Lanka","longitude":81.678802,"latitude":7.70576},"BTW":{"name":"Batu Licin Airport","iata":"BTW","city":"Batu Licin","country":"Indonesia","longitude":115.995003,"latitude":-3.41241},"BUS":{"name":"Batumi International Airport","iata":"BUS","city":"Batumi","country":"Georgia","longitude":41.599701,"latitude":41.610298},"BPF":{"name":"Batuna Aerodrome","iata":"BPF","city":"Batuna","country":"Solomon Islands","longitude":158.119306,"latitude":-8.562028},"BDE":{"name":"Baudette International Airport","iata":"BDE","city":"Baudette","country":"United States","longitude":-94.612198,"latitude":48.728401},"VLI":{"name":"Bauerfield International Airport","iata":"VLI","city":"Port-vila","country":"Vanuatu","longitude":168.320007,"latitude":-17.699301},"JTC":{"name":"Bauru - Arealva Airport","iata":"JTC","city":"Bauru","country":"Brazil","longitude":-49.050287,"latitude":-22.166859},"BAU":{"name":"Bauru Airport","iata":"BAU","city":"Bauru","country":"Brazil","longitude":-49.053799,"latitude":-22.344999},"BBC":{"name":"Bay City Municipal Airport","iata":"BBC","city":"Bay City","country":"United States","longitude":-95.863503,"latitude":28.973301},"BYN":{"name":"Bayankhongor Airport","iata":"BYN","city":"Bayankhongor","country":"Mongolia","longitude":100.704002,"latitude":46.1633},"RLK":{"name":"Bayannur Tianjitai Airport","iata":"RLK","city":"Bayannur","country":"China","longitude":107.7428,"latitude":40.926},"BYU":{"name":"Bayreuth Airport","iata":"BYU","city":"Bayreuth","country":"Germany","longitude":11.64,"latitude":49.985001},"BAB":{"name":"Beale Air Force Base","iata":"BAB","city":"Marysville","country":"United States","longitude":-121.436996,"latitude":39.136101},"XBE":{"name":"Bearskin Lake Airport","iata":"XBE","city":"Bearskin Lake","country":"Canada","longitude":-91.027199,"latitude":53.965599},"BFT":{"name":"Beaufort County Airport","iata":"BFT","city":"Beaufort","country":"United States","longitude":-80.634399,"latitude":32.412201},"BMT":{"name":"Beaumont Municipal Airport","iata":"BMT","city":"Beaumont","country":"United States","longitude":-94.215797,"latitude":30.0707},"DRI":{"name":"Beauregard Regional Airport","iata":"DRI","city":"Deridder","country":"United States","longitude":-93.339897,"latitude":30.831699},"WBQ":{"name":"Beaver Airport","iata":"WBQ","city":"Beaver","country":"United States","longitude":-147.406998,"latitude":66.362198},"BFP":{"name":"Beaver County Airport","iata":"BFP","city":"Beaver Falls","country":"United States","longitude":-80.391403,"latitude":40.772499},"YXQ":{"name":"Beaver Creek Airport","iata":"YXQ","city":"Beaver Creek","country":"Canada","longitude":-140.867004,"latitude":62.410301},"CBH":{"name":"Béchar Boudghene Ben Ali Lotfi Airport","iata":"CBH","city":"Béchar","country":"Algeria","longitude":-2.26986,"latitude":31.6457},"BEU":{"name":"Bedourie Airport","iata":"BEU","city":"Bedourie","country":"Australia","longitude":139.460007,"latitude":-24.3461},"YBW":{"name":"Bedwell Harbour Seaplane Base","iata":"YBW","city":"Bedwell Harbour","country":"Canada","longitude":-123.233002,"latitude":48.75},"BEC":{"name":"Beech Factory Airport","iata":"BEC","city":"Wichita","country":"United States","longitude":-97.214996,"latitude":37.6945},"BEV":{"name":"Beersheba (Teyman) Airport","iata":"BEV","city":"Beer-sheba","country":"Israel","longitude":34.723,"latitude":31.287001},"NBC":{"name":"Begishevo Airport","iata":"NBC","city":"Nizhnekamsk","country":"Russia","longitude":52.092499,"latitude":55.564701},"BPM":{"name":"Begumpet Airport","iata":"BPM","city":"Hyderabad","country":"India","longitude":78.467598,"latitude":17.4531},"BEI":{"name":"Beica Airport","iata":"BEI","city":"Beica","country":"Ethiopia","longitude":34.5219,"latitude":9.38639},"BHY":{"name":"Beihai Airport","iata":"BHY","city":"Beihai","country":"China","longitude":109.293999,"latitude":21.5394},"BHN":{"name":"Beihan Airport","iata":"BHN","city":"Beihan","country":"Yemen","longitude":45.7201,"latitude":14.782},"PEK":{"name":"Beijing Capital International Airport","iata":"PEK","city":"Beijing","country":"China","longitude":116.584999,"latitude":40.080101},"PKX":{"name":"Beijing Daxing International Airport","iata":"PKX","city":"Beijing","country":"China","longitude":116.41092,"latitude":39.509945},"NAY":{"name":"Beijing Nanyuan Airport","iata":"NAY","city":"Beijing","country":"China","longitude":116.388,"latitude":39.782799},"BEW":{"name":"Beira Airport","iata":"BEW","city":"Beira","country":"Mozambique","longitude":34.9076,"latitude":-19.7964},"BEY":{"name":"Beirut Rafic Hariri International Airport","iata":"BEY","city":"Beirut","country":"Lebanon","longitude":35.4884,"latitude":33.8209},"BYJ":{"name":"Beja Airport / Airbase","iata":"BYJ","city":"Beja (madeira)","country":"Portugal","longitude":-7.9324,"latitude":38.078899},"OVA":{"name":"Bekily Airport","iata":"OVA","city":"Bekily","country":"Madagascar","longitude":45.304527,"latitude":-24.235695},"BLG":{"name":"Belaga Airport","iata":"BLG","city":"Belaga","country":"Malaysia","longitude":113.766998,"latitude":2.65},"BGN":{"name":"Belaya Gora Airport","iata":"BGN","city":"","country":"Russia","longitude":146.231506,"latitude":68.556602},"UKS":{"name":"Belbek Airport","iata":"UKS","city":"Sevastopol","country":"Ukraine","longitude":33.570999,"latitude":44.688999},"BFS":{"name":"Belfast International Airport","iata":"BFS","city":"Belfast","country":"United Kingdom","longitude":-6.21583,"latitude":54.657501},"IXG":{"name":"Belgaum Airport","iata":"IXG","city":"Belgaum","country":"India","longitude":74.618301,"latitude":15.8593},"EGO":{"name":"Belgorod International Airport","iata":"EGO","city":"Belgorod","country":"Russia","longitude":36.590099,"latitude":50.643799},"BEG":{"name":"Belgrade Nikola Tesla Airport","iata":"BEG","city":"Belgrade","country":"Serbia","longitude":20.309099,"latitude":44.818401},"QBC":{"name":"Bella Coola Airport","iata":"QBC","city":"Bella Coola","country":"Canada","longitude":-126.596001,"latitude":52.387501},"BEP":{"name":"Bellary Airport","iata":"BEP","city":"Bellary","country":"India","longitude":76.882797,"latitude":15.1628},"BLI":{"name":"Bellingham International Airport","iata":"BLI","city":"Bellingham","country":"United States","longitude":-122.538002,"latitude":48.792801},"BMD":{"name":"Belo sur Tsiribihina Airport","iata":"BMD","city":"Belo sur Tsiribihina","country":"Madagascar","longitude":44.541901,"latitude":-19.686701},"EYK":{"name":"Beloyarskiy Airport","iata":"EYK","city":"Beloyarsky","country":"Russia","longitude":66.698601,"latitude":63.686901},"BBP":{"name":"Bembridge Airport","iata":"BBP","city":"Bembridge","country":"United Kingdom","longitude":-1.10944,"latitude":50.678101},"BJI":{"name":"Bemidji Regional Airport","iata":"BJI","city":"Bemidji","country":"United States","longitude":-94.933701,"latitude":47.509399},"TLV":{"name":"Ben Gurion International Airport","iata":"TLV","city":"Tel-aviv","country":"Israel","longitude":34.8867,"latitude":32.011398},"ELS":{"name":"Ben Schoeman Airport","iata":"ELS","city":"East London","country":"South Africa","longitude":27.825899,"latitude":-33.035599},"GMD":{"name":"Ben Slimane Airport","iata":"GMD","city":"Ben Slimane","country":"Morocco","longitude":-7.22145,"latitude":33.655399},"RPN":{"name":"Ben Ya'akov Airport","iata":"RPN","city":"Rosh Pina","country":"Israel","longitude":35.571899,"latitude":32.980999},"BLN":{"name":"Benalla Airport","iata":"BLN","city":"","country":"Australia","longitude":146.007004,"latitude":-36.551899},"BEB":{"name":"Benbecula Airport","iata":"BEB","city":"Benbecula","country":"United Kingdom","longitude":-7.36278,"latitude":57.481098},"BXG":{"name":"Bendigo Airport","iata":"BXG","city":"Bendigo","country":"Australia","longitude":144.330002,"latitude":-36.739399},"BFU":{"name":"Bengbu Airport","iata":"BFU","city":"Bengbu","country":"China","longitude":117.320244,"latitude":32.847733},"BUG":{"name":"Benguela Airport","iata":"BUG","city":"Benguela","country":"Angola","longitude":13.4037,"latitude":-12.609},"BNC":{"name":"Beni Airport","iata":"BNC","city":"Beni","country":"Congo (Kinshasa)","longitude":29.4739,"latitude":0.575},"BEM":{"name":"Beni Mellal Airport","iata":"BEM","city":"Beni Mellal","country":"Morocco","longitude":-6.315905,"latitude":32.401895},"BNI":{"name":"Benin Airport","iata":"BNI","city":"Benin","country":"Nigeria","longitude":5.5995,"latitude":6.31698},"BEN":{"name":"Benina International Airport","iata":"BEN","city":"Benghazi","country":"Libya","longitude":20.269501,"latitude":32.096802},"NVA":{"name":"Benito Salas Airport","iata":"NVA","city":"Neiva","country":"Colombia","longitude":-75.294,"latitude":2.95015},"CPX":{"name":"Benjamin Rivera Noriega Airport","iata":"CPX","city":"Culebra Island","country":"Puerto Rico","longitude":-65.304324,"latitude":18.313289},"BBO":{"name":"Berbera Airport","iata":"BBO","city":"Berbera","country":"Somalia","longitude":44.941101,"latitude":10.3892},"BBT":{"name":"Berbérati Airport","iata":"BBT","city":"Berberati","country":"Central African Republic","longitude":15.7864,"latitude":4.22158},"ERD":{"name":"Berdyansk Airport","iata":"ERD","city":"Berdyansk","country":"Ukraine","longitude":36.758099,"latitude":46.814999},"YBV":{"name":"Berens River Airport","iata":"YBV","city":"Berens River","country":"Canada","longitude":-97.018303,"latitude":52.358898},"EZV":{"name":"Berezovo Airport","iata":"EZV","city":"Berezovo","country":"Russia","longitude":65.030502,"latitude":63.921001},"BGO":{"name":"Bergen Airport Flesland","iata":"BGO","city":"Bergen","country":"Norway","longitude":5.21814,"latitude":60.2934},"EGC":{"name":"Bergerac-Roumanière Airport","iata":"EGC","city":"Bergerac","country":"France","longitude":0.518611,"latitude":44.825298},"BVG":{"name":"Berlevåg Airport","iata":"BVG","city":"Berlevag","country":"Norway","longitude":29.034201,"latitude":70.871399},"BER":{"name":"Berlin Brandenburg Airport","iata":"BER","city":"Berlin","country":"Germany","longitude":13.503333,"latitude":52.366667},"SXF":{"name":"Berlin-Schönefeld Airport","iata":"SXF","city":"Berlin","country":"Germany","longitude":13.5225,"latitude":52.380001},"TXL":{"name":"Berlin-Tegel Airport","iata":"TXL","city":"Berlin","country":"Germany","longitude":13.2877,"latitude":52.5597},"THF":{"name":"Berlin-Tempelhof International Airport","iata":"THF","city":"Berlin","country":"Germany","longitude":13.4039,"latitude":52.473},"BJO":{"name":"Bermejo Airport","iata":"BJO","city":"Bermejo","country":"Bolivia","longitude":-64.312897,"latitude":-22.7733},"UDD":{"name":"Bermuda Dunes Airport","iata":"UDD","city":"Palm Springs","country":"United States","longitude":-116.275002,"latitude":33.748402},"BRN":{"name":"Bern Belp Airport","iata":"BRN","city":"Bern","country":"Switzerland","longitude":7.49715,"latitude":46.914101},"BTM":{"name":"Bert Mooney Airport","iata":"BTM","city":"Butte","country":"United States","longitude":-112.497002,"latitude":45.9548},"BEZ":{"name":"Beru Airport","iata":"BEZ","city":"Beru Island","country":"Kiribati","longitude":176.007004,"latitude":-1.35472},"BPY":{"name":"Besalampy Airport","iata":"BPY","city":"Besalampy","country":"Madagascar","longitude":44.482484,"latitude":-16.74453},"OGZ":{"name":"Beslan Airport","iata":"OGZ","city":"Beslan","country":"Russia","longitude":44.606602,"latitude":43.205101},"BET":{"name":"Bethel Airport","iata":"BET","city":"Bethel","country":"United States","longitude":-161.837997,"latitude":60.7798},"BUW":{"name":"Betoambari Airport","iata":"BUW","city":"Bau-Bau","country":"Indonesia","longitude":122.569,"latitude":-5.48688},"BTT":{"name":"Bettles Airport","iata":"BTT","city":"Bettles","country":"United States","longitude":-151.529007,"latitude":66.913902},"BVY":{"name":"Beverly Municipal Airport","iata":"BVY","city":"Beverly","country":"United States","longitude":-70.916496,"latitude":42.584202},"BZR":{"name":"Béziers-Vias Airport","iata":"BZR","city":"Beziers","country":"France","longitude":3.3539,"latitude":43.323502},"JAM":{"name":"Bezmer Air Base","iata":"JAM","city":"Yambol","country":"Bulgaria","longitude":26.3522,"latitude":42.454899},"BDP":{"name":"Bhadrapur Airport","iata":"BDP","city":"Chandragarhi","country":"Nepal","longitude":88.079597,"latitude":26.570801},"BHW":{"name":"Bhagatanwala Airport","iata":"BHW","city":"Bhagtanwala","country":"Pakistan","longitude":72.948402,"latitude":32.056099},"BHR":{"name":"Bharatpur Airport","iata":"BHR","city":"Bharatpur","country":"Nepal","longitude":84.429398,"latitude":27.678101},"BUP":{"name":"Bhatinda Air Force Station","iata":"BUP","city":"Bhatinda","country":"India","longitude":74.755798,"latitude":30.2701},"BHU":{"name":"Bhavnagar Airport","iata":"BHU","city":"Bhaunagar","country":"India","longitude":72.185204,"latitude":21.752199},"BHP":{"name":"Bhojpur Airport","iata":"BHP","city":"Bhojpur","country":"Nepal","longitude":87.050797,"latitude":27.1474},"BHJ":{"name":"Bhuj Airport","iata":"BHJ","city":"Bhuj","country":"India","longitude":69.670197,"latitude":23.2878},"BIQ":{"name":"Biarritz-Anglet-Bayonne Airport","iata":"BIQ","city":"Biarritz-bayonne","country":"France","longitude":-1.531111,"latitude":43.468333},"BXP":{"name":"Biała Podlaska Airfield","iata":"BXP","city":"Biała Podlaska","country":"Poland","longitude":23.132528,"latitude":52.00078},"BYS":{"name":"Bicycle Lake Army Air Field","iata":"BYS","city":"Fort Irwin","country":"United States","longitude":-116.629997,"latitude":35.280499},"BFE":{"name":"Bielefeld Airport","iata":"BFE","city":"Bielefeld","country":"Germany","longitude":8.544444,"latitude":51.964722},"BMX":{"name":"Big Mountain Airport","iata":"BMX","city":"Big Mountain","country":"United States","longitude":-155.259003,"latitude":59.361198},"YTL":{"name":"Big Trout Lake Airport","iata":"YTL","city":"Big Trout Lake","country":"Canada","longitude":-89.896896,"latitude":53.817799},"BIF":{"name":"Biggs Army Air Field (Fort Bliss)","iata":"BIF","city":"El Paso","country":"United States","longitude":-106.379997,"latitude":31.849501},"BFJ":{"name":"Bijie Feixiong Airport","iata":"BFJ","city":"Bijie","country":"China","longitude":105.472097,"latitude":27.267066},"BBI":{"name":"Biju Patnaik Airport","iata":"BBI","city":"Bhubaneswar","country":"India","longitude":85.817802,"latitude":20.2444},"PAB":{"name":"Bilaspur Airport","iata":"PAB","city":"Bilaspur","country":"India","longitude":82.111,"latitude":21.9884},"BIO":{"name":"Bilbao Airport","iata":"BIO","city":"Bilbao","country":"Spain","longitude":-2.91061,"latitude":43.301102},"BIU":{"name":"Bildudalur Airport","iata":"BIU","city":"Bildudalur","country":"Iceland","longitude":-23.5462,"latitude":65.641296},"LIT":{"name":"Bill & Hillary Clinton National Airport/Adams Field","iata":"LIT","city":"Little Rock","country":"United States","longitude":-92.224297,"latitude":34.729401},"BIL":{"name":"Billings Logan International Airport","iata":"BIL","city":"Billings","country":"United States","longitude":-108.542999,"latitude":45.807701},"BLL":{"name":"Billund Airport","iata":"BLL","city":"Billund","country":"Denmark","longitude":9.15178,"latitude":55.740299},"YTZ":{"name":"Billy Bishop Toronto City Centre Airport","iata":"YTZ","city":"Toronto","country":"Canada","longitude":-79.396202,"latitude":43.627499},"UGU":{"name":"Bilogai-Sugapa Airport","iata":"UGU","city":"Sugapa-Papua Island","country":"Indonesia","longitude":137.031998,"latitude":-3.73956},"GNS":{"name":"Binaka Airport","iata":"GNS","city":"Gunung Sitoli","country":"Indonesia","longitude":97.704697,"latitude":1.16638},"BGG":{"name":"Bingöl Çeltiksuyu Airport","iata":"BGG","city":"Bingol","country":"Turkey","longitude":40.595963,"latitude":38.859261},"BTU":{"name":"Bintulu Airport","iata":"BTU","city":"Bintulu","country":"Malaysia","longitude":113.019997,"latitude":3.12385},"BIR":{"name":"Biratnagar Airport","iata":"BIR","city":"Biratnagar","country":"Nepal","longitude":87.264,"latitude":26.481501},"BDI":{"name":"Bird Island Airport","iata":"BDI","city":"Bird Island","country":"Seychelles","longitude":55.205299,"latitude":-3.72472},"BVI":{"name":"Birdsville Airport","iata":"BVI","city":"Birdsville","country":"Australia","longitude":139.348007,"latitude":-25.897499},"XBJ":{"name":"Birjand Airport","iata":"XBJ","city":"Birjand","country":"Iran","longitude":59.266102,"latitude":32.898102},"BHX":{"name":"Birmingham International Airport","iata":"BHX","city":"Birmingham","country":"United Kingdom","longitude":-1.74803,"latitude":52.453899},"BHM":{"name":"Birmingham-Shuttlesworth International Airport","iata":"BHM","city":"Birmingham","country":"United States","longitude":-86.753502,"latitude":33.562901},"IXR":{"name":"Birsa Munda Airport","iata":"IXR","city":"Ranchi","country":"India","longitude":85.321701,"latitude":23.314301},"DUG":{"name":"Bisbee Douglas International Airport","iata":"DUG","city":"Douglas","country":"United States","longitude":-109.603996,"latitude":31.469},"BHH":{"name":"Bisha Airport","iata":"BHH","city":"Bisha","country":"Saudi Arabia","longitude":42.620899,"latitude":19.9844},"BIY":{"name":"Bisho Airport","iata":"BIY","city":"Bisho","country":"South Africa","longitude":27.2791,"latitude":-32.897099},"FNT":{"name":"Bishop International Airport","iata":"FNT","city":"Flint","country":"United States","longitude":-83.743599,"latitude":42.965401},"BSK":{"name":"Biskra Airport","iata":"BSK","city":"Biskra","country":"Algeria","longitude":5.73823,"latitude":34.793301},"BPH":{"name":"Bislig Airport","iata":"BPH","city":"","country":"Philippines","longitude":126.321999,"latitude":8.19595},"BIS":{"name":"Bismarck Municipal Airport","iata":"BIS","city":"Bismarck","country":"United States","longitude":-100.746002,"latitude":46.772701},"BMM":{"name":"Bitam Airport","iata":"BMM","city":"Bitam","country":"Gabon","longitude":11.4932,"latitude":2.07564},"BBJ":{"name":"Bitburg Airport","iata":"BBJ","city":"Birburg","country":"Germany","longitude":6.565,"latitude":49.945278},"SPF":{"name":"Black Hills Airport-Clyde Ice Field","iata":"SPF","city":"Spearfish-South Dakota","country":"United States","longitude":-103.782997,"latitude":44.480301},"YBI":{"name":"Black Tickle Airport","iata":"YBI","city":"Black Tickle","country":"Canada","longitude":-55.785,"latitude":53.469398},"BKQ":{"name":"Blackall Airport","iata":"BKQ","city":"Blackall","country":"Australia","longitude":145.429001,"latitude":-24.427799},"BBS":{"name":"Blackbushe Airport","iata":"BBS","city":"Blackbushe","country":"United Kingdom","longitude":-0.8475,"latitude":51.323898},"BLK":{"name":"Blackpool International Airport","iata":"BLK","city":"Blackpool","country":"United Kingdom","longitude":-3.02861,"latitude":53.771702},"BLT":{"name":"Blackwater Airport","iata":"BLT","city":"Blackwater","country":"Australia","longitude":148.807007,"latitude":-23.6031},"DSS":{"name":"Blaise Diagne International Airport","iata":"DSS","city":"Dakar","country":"Senegal","longitude":-17.073333,"latitude":14.67},"QLD":{"name":"Blida Airport","iata":"QLD","city":"Blida","country":"Algeria","longitude":2.81417,"latitude":36.503601},"BWX":{"name":"Blimbingsari Airport","iata":"BWX","city":"Banyuwangi","country":"Indonesia","longitude":114.3401,"latitude":-8.31015},"BID":{"name":"Block Island State Airport","iata":"BID","city":"Block Island","country":"United States","longitude":-71.577797,"latitude":41.168098},"LEX":{"name":"Blue Grass Airport","iata":"LEX","city":"Lexington KY","country":"United States","longitude":-84.605904,"latitude":38.036499},"BEF":{"name":"Bluefields Airport","iata":"BEF","city":"Bluefields","country":"Nicaragua","longitude":-83.774101,"latitude":11.991},"BNU":{"name":"Blumenau Airport","iata":"BNU","city":"BLUMENAU","country":"Brazil","longitude":-49.090302,"latitude":-26.830601},"BLH":{"name":"Blythe Airport","iata":"BLH","city":"Blythe","country":"United States","longitude":-114.717003,"latitude":33.619202},"KBS":{"name":"Bo Airport","iata":"KBS","city":"Bo","country":"Sierra Leone","longitude":-11.761,"latitude":7.9444},"IAN":{"name":"Bob Baker Memorial Airport","iata":"IAN","city":"Kiana","country":"United States","longitude":-160.436996,"latitude":66.975998},"BUR":{"name":"Bob Hope Airport","iata":"BUR","city":"Burbank","country":"United States","longitude":-118.359001,"latitude":34.200699},"YBO":{"name":"Bob Quinn Lake Airport","iata":"YBO","city":"Bob Quinn Lake","country":"Canada","longitude":-130.25,"latitude":56.966702},"CEW":{"name":"Bob Sikes Airport","iata":"CEW","city":"Crestview","country":"United States","longitude":-86.522102,"latitude":30.778799},"BOY":{"name":"Bobo Dioulasso Airport","iata":"BOY","city":"Bobo-dioulasso","country":"Burkina Faso","longitude":-4.33097,"latitude":11.1601},"BCT":{"name":"Boca Raton Airport","iata":"BCT","city":"Boca Raton","country":"United States","longitude":-80.107697,"latitude":26.3785},"BOC":{"name":"Bocas Del Toro International Airport","iata":"BOC","city":"Bocas Del Toro","country":"Panama","longitude":-82.250801,"latitude":9.34085},"ODO":{"name":"Bodaybo Airport","iata":"ODO","city":"Bodaibo","country":"Russia","longitude":114.242996,"latitude":57.8661},"BNM":{"name":"Bodinumu Airport","iata":"BNM","city":"Bodinumu","country":"Papua New Guinea","longitude":147.666722,"latitude":-9.107778},"BOO":{"name":"Bodø Airport","iata":"BOO","city":"Bodo","country":"Norway","longitude":14.3653,"latitude":67.269203},"BFI":{"name":"Boeing Field King County International Airport","iata":"BFI","city":"Seattle","country":"United States","longitude":-122.302002,"latitude":47.529999},"BNB":{"name":"Boende Airport","iata":"BNB","city":"Boende","country":"Congo (Kinshasa)","longitude":20.85,"latitude":-0.217},"TOF":{"name":"Bogashevo Airport","iata":"TOF","city":"Tomsk","country":"Russia","longitude":85.208298,"latitude":56.380299},"BQG":{"name":"Bogorodskoye Airport","iata":"BQG","city":"Bogorodskoe","country":"Russia","longitude":140.448,"latitude":52.38},"GIC":{"name":"Boigu Airport","iata":"GIC","city":"Boigu","country":"Australia","longitude":142.218002,"latitude":-9.23278},"ASH":{"name":"Boire Field","iata":"ASH","city":"Nashua","country":"United States","longitude":-71.514801,"latitude":42.7817},"BOI":{"name":"Boise Air Terminal/Gowen Field","iata":"BOI","city":"Boise","country":"United States","longitude":-116.223,"latitude":43.5644},"BJB":{"name":"Bojnord Airport","iata":"BJB","city":"Bojnourd","country":"Iran","longitude":57.308201,"latitude":37.493},"BUI":{"name":"Bokondini Airport","iata":"BUI","city":"Bokondini-Papua Island","country":"Indonesia","longitude":138.6755,"latitude":-3.6822},"VBP":{"name":"Bokpyinn Airport","iata":"VBP","city":"Bokepyin","country":"Burma","longitude":98.735901,"latitude":11.1494},"BWK":{"name":"Bol Airport","iata":"BWK","city":"Brac","country":"Croatia","longitude":16.679701,"latitude":43.285702},"BLQ":{"name":"Bologna Guglielmo Marconi Airport","iata":"BLQ","city":"Bologna","country":"Italy","longitude":11.2887,"latitude":44.5354},"PEE":{"name":"Bolshoye Savino Airport","iata":"PEE","city":"Perm","country":"Russia","longitude":56.021198,"latitude":57.914501},"BZO":{"name":"Bolzano Airport","iata":"BZO","city":"Bolzano","country":"Italy","longitude":11.3264,"latitude":46.460201},"LAZ":{"name":"Bom Jesus da Lapa Airport","iata":"LAZ","city":"Bom Jesus Da Lapa","country":"Brazil","longitude":-43.4081,"latitude":-13.2621},"BOA":{"name":"Boma Airport","iata":"BOA","city":"Boma","country":"Congo (Kinshasa)","longitude":13.064,"latitude":-5.854},"YVB":{"name":"Bonaventure Airport","iata":"YVB","city":"Bonaventure","country":"Canada","longitude":-65.460297,"latitude":48.071098},"BYO":{"name":"Bonito Airport","iata":"BYO","city":"Bointo","country":"Brazil","longitude":-56.452499,"latitude":-21.247299},"BNJ":{"name":"Bonn-Hangelar Airport","iata":"BNJ","city":"Sankt-Augustin","country":"Germany","longitude":7.163333,"latitude":50.76889},"YBY":{"name":"Bonnyville Airport","iata":"YBY","city":"Bonnyville","country":"Canada","longitude":-110.744003,"latitude":54.304199},"TRW":{"name":"Bonriki International Airport","iata":"TRW","city":"Tarawa","country":"Kiribati","longitude":173.147003,"latitude":1.38164},"OCM":{"name":"Boolgeeda","iata":"OCM","city":"Brockman","country":"Australia","longitude":117.275,"latitude":-22.54},"HRO":{"name":"Boone County Airport","iata":"HRO","city":"Harrison","country":"United States","longitude":-93.154701,"latitude":36.261501},"BOB":{"name":"Bora Bora Airport","iata":"BOB","city":"Bora Bora","country":"French Polynesia","longitude":-151.751007,"latitude":-16.444401},"RBB":{"name":"Borba Airport","iata":"RBB","city":"Borba","country":"Brazil","longitude":-59.602402,"latitude":-4.40634},"BOD":{"name":"Bordeaux-Mérignac Airport","iata":"BOD","city":"Bordeaux","country":"France","longitude":-0.715556,"latitude":44.8283},"BMW":{"name":"Bordj Badji Mokhtar Airport","iata":"BMW","city":"Bordj Badji Mokhtar","country":"Algeria","longitude":0.923889,"latitude":21.375},"HBE":{"name":"Borg El Arab International Airport","iata":"HBE","city":"Alexandria","country":"Egypt","longitude":29.6964,"latitude":30.9177},"BMK":{"name":"Borkum Airport","iata":"BMK","city":"Borkum","country":"Germany","longitude":6.709167,"latitude":53.59639},"BLE":{"name":"Borlange Airport","iata":"BLE","city":"Borlange","country":"Sweden","longitude":15.5152,"latitude":60.422001},"RNN":{"name":"Bornholm Airport","iata":"RNN","city":"Ronne","country":"Denmark","longitude":14.7596,"latitude":55.063301},"BOX":{"name":"Borroloola Airport","iata":"BOX","city":"Borroloola","country":"Australia","longitude":136.302002,"latitude":-16.0753},"KBP":{"name":"Boryspil International Airport","iata":"KBP","city":"Kiev","country":"Ukraine","longitude":30.894699,"latitude":50.345001},"BSA":{"name":"Bosaso Airport","iata":"BSA","city":"Bosaso","country":"Somalia","longitude":49.149399,"latitude":11.2753},"OCJ":{"name":"Boscobel Aerodrome","iata":"OCJ","city":"Ocho Rios","country":"Jamaica","longitude":-76.969002,"latitude":18.4042},"BST":{"name":"Bost Airport","iata":"BST","city":"Lashkar Gah","country":"Afghanistan","longitude":64.364998,"latitude":31.5597},"QCJ":{"name":"Botucatu - Tancredo de Almeida Neves Airport","iata":"QCJ","city":"Botucatu","country":"Brazil","longitude":-48.467999,"latitude":-22.939501},"TID":{"name":"Bou Chekif Airport","iata":"TID","city":"Tiaret","country":"Algeria","longitude":1.46315,"latitude":35.341099},"BUJ":{"name":"Bou Saada Airport","iata":"BUJ","city":"Bou Saada","country":"Algeria","longitude":4.20639,"latitude":35.3325},"BYK":{"name":"Bouaké Airport","iata":"BYK","city":"Bouake","country":"Cote d'Ivoire","longitude":-5.07367,"latitude":7.7388},"UAR":{"name":"Bouarfa Airport","iata":"UAR","city":"Bouarfa","country":"Morocco","longitude":-1.983056,"latitude":32.514306},"WBU":{"name":"Boulder Municipal Airport","iata":"WBU","city":"Boulder","country":"United States","longitude":-105.225998,"latitude":40.039398},"BQL":{"name":"Boulia Airport","iata":"BQL","city":"Boulia","country":"Australia","longitude":139.899994,"latitude":-22.9133},"PCQ":{"name":"Boun Neau Airport","iata":"PCQ","city":"Phongsaly","country":"Laos","longitude":101.9,"latitude":21.6475},"YDT":{"name":"Boundary Bay Airport","iata":"YDT","city":"Boundary Bay","country":"Canada","longitude":-123.012001,"latitude":49.0742},"BOU":{"name":"Bourges Airport","iata":"BOU","city":"Bourges","country":"France","longitude":2.37028,"latitude":47.058102},"BRK":{"name":"Bourke Airport","iata":"BRK","city":"Bourke","country":"Australia","longitude":145.951996,"latitude":-30.0392},"BOH":{"name":"Bournemouth Airport","iata":"BOH","city":"Bournemouth","country":"United Kingdom","longitude":-1.8425,"latitude":50.779999},"ZBO":{"name":"Bowen Airport","iata":"ZBO","city":"Bowen","country":"Australia","longitude":148.214996,"latitude":-20.018299},"HQM":{"name":"Bowerman Airport","iata":"HQM","city":"Hoquiam","country":"United States","longitude":-123.936996,"latitude":46.971199},"BWG":{"name":"Bowling Green Warren County Regional Airport","iata":"BWG","city":"Bowling Green","country":"United States","longitude":-86.419701,"latitude":36.9645},"LOU":{"name":"Bowman Field","iata":"LOU","city":"Louisville","country":"United States","longitude":-85.663696,"latitude":38.228001},"POC":{"name":"Brackett Field","iata":"POC","city":"La Verne","country":"United States","longitude":-117.781998,"latitude":34.091599},"BFD":{"name":"Bradford Regional Airport","iata":"BFD","city":"Bradford","country":"United States","longitude":-78.640099,"latitude":41.803101},"BDL":{"name":"Bradley International Airport","iata":"BDL","city":"Windsor Locks","country":"United States","longitude":-72.683197,"latitude":41.9389},"BSF":{"name":"Bradshaw Army Airfield","iata":"BSF","city":"Bradshaw Field","country":"United States","longitude":-155.554001,"latitude":19.760099},"BGZ":{"name":"Braga Municipal Aerodrome","iata":"BGZ","city":"Braga","country":"Portugal","longitude":-8.44514,"latitude":41.587101},"BGC":{"name":"Bragança Airport","iata":"BGC","city":"Braganca","country":"Portugal","longitude":-6.70713,"latitude":41.8578},"BRD":{"name":"Brainerd Lakes Regional Airport","iata":"BRD","city":"Brainerd","country":"United States","longitude":-94.1381,"latitude":46.3983},"BFN":{"name":"Bram Fischer International Airport","iata":"BFN","city":"Bloemfontein","country":"South Africa","longitude":26.302401,"latitude":-29.092699},"BMP":{"name":"Brampton Island Airport","iata":"BMP","city":"Brampton Island","country":"Australia","longitude":149.270004,"latitude":-20.803301},"YBR":{"name":"Brandon Municipal Airport","iata":"YBR","city":"Brandon","country":"Canada","longitude":-99.951897,"latitude":49.91},"BKG":{"name":"Branson Airport","iata":"BKG","city":"Branson","country":"United States","longitude":-93.200544,"latitude":36.532082},"BTK":{"name":"Bratsk Airport","iata":"BTK","city":"Bratsk","country":"Russia","longitude":101.697998,"latitude":56.370602},"BWE":{"name":"Braunschweig-Wolfsburg Airport","iata":"BWE","city":"Braunschweig","country":"Germany","longitude":10.5561,"latitude":52.319199},"BRE":{"name":"Bremen Airport","iata":"BRE","city":"Bremen","country":"Germany","longitude":8.78667,"latitude":53.047501},"BRV":{"name":"Bremerhaven Airport","iata":"BRV","city":"Bremerhaven","country":"Germany","longitude":8.572778,"latitude":53.506943},"PWT":{"name":"Bremerton National Airport","iata":"PWT","city":"Bremerton","country":"United States","longitude":-122.764999,"latitude":47.4902},"VBS":{"name":"Brescia Airport","iata":"VBS","city":"Brescia","country":"Italy","longitude":10.3306,"latitude":45.428902},"BQT":{"name":"Brest Airport","iata":"BQT","city":"Brest","country":"Belarus","longitude":23.8981,"latitude":52.108299},"BES":{"name":"Brest Bretagne Airport","iata":"BES","city":"Brest","country":"France","longitude":-4.41854,"latitude":48.447899},"BVS":{"name":"Breves Airport","iata":"BVS","city":"Breves","country":"Brazil","longitude":-50.4436,"latitude":-1.63653},"KTS":{"name":"Brevig Mission Airport","iata":"KTS","city":"Brevig Mission","country":"United States","longitude":-166.466003,"latitude":65.331299},"BWQ":{"name":"Brewarrina Airport","iata":"BWQ","city":"","country":"Australia","longitude":146.817001,"latitude":-29.9739},"HDE":{"name":"Brewster Field","iata":"HDE","city":"Holdredge","country":"United States","longitude":-99.336502,"latitude":40.452099},"CLN":{"name":"Brig. Lysias Augusto Rodrigues Airport","iata":"CLN","city":"Carolina","country":"Brazil","longitude":-47.458698,"latitude":-7.32044},"DIQ":{"name":"Brigadeiro Cabral Airport","iata":"DIQ","city":"Divinopolis","country":"Brazil","longitude":-44.870899,"latitude":-20.1807},"BVH":{"name":"Brigadeiro Camarão Airport","iata":"BVH","city":"Vilhena","country":"Brazil","longitude":-60.098301,"latitude":-12.6944},"PMW":{"name":"Brigadeiro Lysias Rodrigues Airport","iata":"PMW","city":"Palmas","country":"Brazil","longitude":-48.356998,"latitude":-10.2915},"EQS":{"name":"Brigadier Antonio Parodi Airport","iata":"EQS","city":"Esquel","country":"Argentina","longitude":-71.139503,"latitude":-42.908001},"CSZ":{"name":"Brigadier D.H.E. Ruiz Airport","iata":"CSZ","city":"Colonel Suarez","country":"Argentina","longitude":-61.889301,"latitude":-37.446098},"LUQ":{"name":"Brigadier Mayor D Cesar Raul Ojeda Airport","iata":"LUQ","city":"San Luis","country":"Argentina","longitude":-66.3564,"latitude":-33.273201},"BMC":{"name":"Brigham City Regional Airport","iata":"BMC","city":"Brigham City","country":"United States","longitude":-112.061996,"latitude":41.552399},"BDS":{"name":"Brindisi – Salento Airport","iata":"BDS","city":"Brindisi","country":"Italy","longitude":17.947001,"latitude":40.6576},"ACF":{"name":"Brisbane Archerfield Airport","iata":"ACF","city":"Brisbane","country":"Australia","longitude":153.007996,"latitude":-27.570299},"BNE":{"name":"Brisbane International Airport","iata":"BNE","city":"Brisbane","country":"Australia","longitude":153.117004,"latitude":-27.384199},"BRS":{"name":"Bristol Airport","iata":"BRS","city":"Bristol","country":"United Kingdom","longitude":-2.71909,"latitude":51.382702},"FZO":{"name":"Bristol Filton Airport","iata":"FZO","city":"Bristol","country":"United Kingdom","longitude":-2.59083,"latitude":51.519402},"BVE":{"name":"Brive Souillac Airport","iata":"BVE","city":"Brive","country":"France","longitude":1.485556,"latitude":45.039722},"BRQ":{"name":"Brno-Tuřany Airport","iata":"BRQ","city":"Brno","country":"Czech Republic","longitude":16.694401,"latitude":49.151299},"YBT":{"name":"Brochet Airport","iata":"YBT","city":"Brochet","country":"Canada","longitude":-101.679001,"latitude":57.8894},"BHQ":{"name":"Broken Hill Airport","iata":"BHQ","city":"Broken Hill","country":"Australia","longitude":141.472,"latitude":-32.0014},"ZBM":{"name":"Bromont (Roland Desourdy) Airport","iata":"ZBM","city":"Bromont","country":"Canada","longitude":-72.741402,"latitude":45.290798},